,Timestamp,,TimeUS,GPS_ID,Status,GMS,GWk,Nstats,HDop,Lat,Lng,Alt,Spd,GCrs,VZ,Yaw,U
2155,25:14.6,GPS,65785342,0,6,156332600,2401,10,1.21,-35.3632621,149.1652374,584.09,0,353.8629,0,0,1
2504,25:14.8,GPS,65985262,0,6,156332800,2401,10,1.21,-35.3632621,149.1652374,584.09,0,353.8629,0,0,1
2857,25:15.0,GPS,66185182,0,6,156333000,2401,10,1.21,-35.3632621,149.1652374,584.09,0,353.8628,0,0,1
3203,25:15.2,GPS,66385102,0,6,156333200,2401,10,1.21,-35.3632621,149.1652374,584.09,0,353.8629,0,0,1
3557,25:15.4,GPS,66585022,0,6,156333400,2401,10,1.21,-35.3632621,149.1652374,584.09,0,353.8628,0,0,1
3881,25:15.6,GPS,66764950,1,1,0,0,0,-0.01,0,0,0,0,0,0,0,0
3910,25:15.6,GPS,66784942,0,6,156333600,2401,10,1.21,-35.3632621,149.1652374,584.09,0,353.8628,0,0,1
4259,25:15.8,GPS,66984862,0,6,156333800,2401,10,1.21,-35.3632621,149.1652374,584.09,0,353.8629,0,0,1
4610,25:16.0,GPS,67184782,0,6,156334000,2401,10,1.21,-35.3632621,149.1652374,584.09,0,353.8629,0,0,1
4960,25:16.2,GPS,67384702,0,6,156334200,2401,10,1.21,-35.3632621,149.1652374,584.09,0,353.8629,0,0,1
5316,25:16.4,GPS,67584622,0,6,156334400,2401,10,1.21,-35.3632621,149.1652374,584.09,0,353.8629,0,0,1
5667,25:16.6,GPS,67785375,0,6,156334600,2401,10,1.21,-35.3632621,149.1652374,584.09,0,353.8628,0,0,1
6016,25:16.8,GPS,67985295,0,6,156334800,2401,10,1.21,-35.3632621,149.1652374,584.09,0,353.8628,0,0,1
6368,25:17.0,GPS,68185215,0,6,156335000,2401,10,1.21,-35.3632621,149.1652374,584.09,0,353.8629,0,0,1
6717,25:17.2,GPS,68385135,0,6,156335200,2401,10,1.21,-35.3632621,149.1652374,584.09,0,353.8629,0,0,1
7071,25:17.4,GPS,68585055,0,6,156335400,2401,10,1.21,-35.3632621,149.1652374,584.09,0,353.8629,0,0,1
7423,25:17.6,GPS,68784975,0,6,156335600,2401,10,1.21,-35.3632621,149.1652374,584.09,0,353.8629,0,0,1
7771,25:17.8,GPS,68984895,0,6,156335800,2401,10,1.21,-35.3632621,149.1652374,584.09,0,353.8628,0,0,1
8123,25:18.0,GPS,69184815,0,6,156336000,2401,10,1.21,-35.3632621,149.1652374,584.09,0,353.8628,0,0,1
8479,25:18.2,GPS,69384735,0,6,156336200,2401,10,1.21,-35.3632621,149.1652374,584.09,0,353.8628,0,0,1
8844,25:18.4,GPS,69584655,0,6,156336400,2401,10,1.21,-35.3632621,149.1652374,584.09,0,353.8628,0,0,1
9205,25:18.6,GPS,69785408,0,6,156336600,2401,10,1.21,-35.3632621,149.1652374,584.09,0,353.8629,0,0,1
9565,25:18.8,GPS,69985328,0,6,156336800,2401,10,1.21,-35.3632621,149.1652374,584.09,0,353.8629,0,0,1
9926,25:19.0,GPS,70185248,0,6,156337000,2401,10,1.21,-35.3632621,149.1652374,584.09,0,353.8628,0,0,1
10285,25:19.2,GPS,70385168,0,6,156337200,2401,10,1.21,-35.3632621,149.1652374,584.09,0,353.8629,0,0,1
10651,25:19.4,GPS,70585088,0,6,156337400,2401,10,1.21,-35.3632621,149.1652374,584.09,0,353.8628,0,0,1
10986,25:19.6,GPS,70765016,1,1,0,0,0,-0.01,0,0,0,0,0,0,0,0
11014,25:19.6,GPS,70785008,0,6,156337600,2401,10,1.21,-35.3632621,149.1652374,584.09,0,353.8628,0,0,1
11373,25:19.8,GPS,70984928,0,6,156337800,2401,10,1.21,-35.3632621,149.1652374,584.09,0,353.8629,0,0,1
11734,25:20.0,GPS,71184848,0,6,156338000,2401,10,1.21,-35.3632621,149.1652374,584.09,0,353.8629,0,0,1
12095,25:20.2,GPS,71384768,0,6,156338200,2401,10,1.21,-35.3632621,149.1652374,584.09,0,353.8629,0,0,1
12461,25:20.4,GPS,71584688,0,6,156338400,2401,10,1.21,-35.3632621,149.1652374,584.09,0,353.8629,0,0,1
12822,25:20.6,GPS,71784608,0,6,156338600,2401,10,1.21,-35.3632621,149.1652374,584.09,0,353.8628,0,0,1
13182,25:20.8,GPS,71985361,0,6,156338800,2401,10,1.21,-35.3632621,149.1652374,584.09,0,353.8628,0,0,1
13543,25:21.0,GPS,72185281,0,6,156339000,2401,10,1.21,-35.3632621,149.1652374,584.09,0,353.8629,0,0,1
13901,25:21.2,GPS,72385201,0,6,156339200,2401,10,1.21,-35.3632621,149.1652374,584.09,0,353.8628,0,0,1
14268,25:21.4,GPS,72585121,0,6,156339400,2401,10,1.21,-35.3632621,149.1652374,584.09,0,353.8629,0,0,1
14629,25:21.6,GPS,72785041,0,6,156339600,2401,10,1.21,-35.3632621,149.1652374,584.09,0,353.8629,0,0,1
14989,25:21.8,GPS,72984961,0,6,156339800,2401,10,1.21,-35.3632621,149.1652374,584.09,0,353.8628,0,0,1
15352,25:22.0,GPS,73184881,0,6,156340000,2401,10,1.21,-35.3632621,149.1652374,584.09,0,353.8629,0,0,1
15710,25:22.2,GPS,73384801,0,6,156340200,2401,10,1.21,-35.3632621,149.1652374,584.09,0,359.9766,0,0,1
16076,25:22.4,GPS,73584721,0,6,156340400,2401,10,1.21,-35.3632621,149.1652374,584.09,0.001,359.985,0,0,1
16437,25:22.6,GPS,73784641,0,6,156340600,2401,10,1.21,-35.3632621,149.1652374,584.09,0.001,359.9724,0,0,1
16796,25:22.8,GPS,73985394,0,6,156340800,2401,10,1.21,-35.3632621,149.1652374,584.09,0,359.9554,-0.001,0,1
17163,25:23.0,GPS,74185314,0,6,156341000,2401,10,1.21,-35.3632621,149.1652374,584.1,0,359.8908,-0.06,0,1
17521,25:23.2,GPS,74385234,0,6,156341200,2401,10,1.21,-35.3632621,149.1652374,584.12,0,359.7102,-0.171,0,1
17886,25:23.4,GPS,74585154,0,6,156341400,2401,10,1.21,-35.3632621,149.1652374,584.17,0,359.6296,-0.282,0,1
18250,25:23.6,GPS,74785074,0,6,156341600,2401,10,1.21,-35.3632621,149.1652374,584.26,0.009000001,346.4471,-0.6900001,0,1
18252,25:23.6,GPS,74785074,1,1,0,0,0,-0.01,0,0,0,0,0,0,0,0
18610,25:23.8,GPS,74984994,0,6,156341800,2401,10,1.21,-35.3632621,149.1652374,584.44,0.036,343.7276,-1.135,0,1
18973,25:24.0,GPS,75184914,0,6,156342000,2401,10,1.21,-35.363262,149.1652374,584.68,0.068,340.7091,-1.194,0,1
19332,25:24.2,GPS,75384834,0,6,156342200,2401,10,1.21,-35.3632618,149.1652373,584.92,0.087,338.1058,-1.23,0,1
19697,25:24.4,GPS,75584754,0,6,156342400,2401,10,1.21,-35.3632616,149.1652372,585.18,0.093,337.2853,-1.401,0,1
20058,25:24.6,GPS,75784674,0,6,156342600,2401,10,1.21,-35.3632615,149.1652371,585.48,0.09,337.986,-1.6,0,1
20418,25:24.8,GPS,75984594,0,6,156342800,2401,10,1.21,-35.3632614,149.165237,585.82,0.08000001,339.8233,-1.8,0,1
20780,25:25.0,GPS,76185347,0,6,156343000,2401,10,1.21,-35.3632612,149.165237,586.2,0.067,343.012,-2.008,0,1
21142,25:25.2,GPS,76385267,0,6,156343200,2401,10,1.21,-35.3632611,149.165237,586.62,0.054,348.0425,-2.216,0,1
21511,25:25.4,GPS,76585187,0,6,156343400,2401,10,1.21,-35.363261,149.165237,587.08,0.043,354.5471,-2.388,0,1
21873,25:25.6,GPS,76785107,0,6,156343600,2401,10,1.21,-35.363261,149.165237,587.57,0.035,0.53872,-2.487,0,1
22231,25:25.8,GPS,76985027,0,6,156343800,2401,10,1.21,-35.3632609,149.165237,588.07,0.029,5.46589,-2.511,0,1
22592,25:26.0,GPS,77184947,0,6,156344000,2401,10,1.21,-35.3632609,149.165237,588.57,0.026,11.0706,-2.466,0,1
22952,25:26.2,GPS,77384867,0,6,156344200,2401,10,1.21,-35.3632609,149.165237,589.06,0.024,19.13414,-2.37,0,1
23318,25:26.4,GPS,77584787,0,6,156344400,2401,10,1.21,-35.3632608,149.165237,589.52,0.024,30.79791,-2.249,0,1
23679,25:26.6,GPS,77784707,0,6,156344600,2401,10,1.21,-35.3632608,149.165237,589.95,0.024,45.07155,-2.119,0,1
24037,25:26.8,GPS,77984627,0,6,156344800,2401,10,1.21,-35.3632608,149.165237,590.37,0.026,59.46879,-1.991,0,1
24397,25:27.0,GPS,78185380,0,6,156345000,2401,10,1.21,-35.3632607,149.165237,590.75,0.028,72.51351,-1.869,0,1
24753,25:27.2,GPS,78385300,0,6,156345200,2401,10,1.21,-35.3632607,149.1652371,591.11,0.031,84.07255,-1.754,0,1
25113,25:27.4,GPS,78585220,0,6,156345400,2401,10,1.21,-35.3632607,149.1652372,591.45,0.034,94.86806,-1.645,0,1
25471,25:27.6,GPS,78785140,0,6,156345600,2401,10,1.21,-35.3632607,149.1652373,591.77,0.036,104.8978,-1.541,0,1
25499,25:27.6,GPS,78805132,1,1,0,0,0,-0.01,0,0,0,0,0,0,0,0
25827,25:27.8,GPS,78985060,0,6,156345800,2401,10,1.21,-35.3632608,149.1652373,592.07,0.038,114.7283,-1.439,0,1
26184,25:28.0,GPS,79184980,0,6,156346000,2401,10,1.21,-35.3632608,149.1652374,592.35,0.038,124.6398,-1.338,0,1
26539,25:28.2,GPS,79384900,0,6,156346200,2401,10,1.21,-35.3632608,149.1652375,592.61,0.038,134.2252,-1.237,0,1
26899,25:28.4,GPS,79584820,0,6,156346400,2401,10,1.21,-35.3632608,149.1652375,592.84,0.037,143.0406,-1.135,0,1
27258,25:28.6,GPS,79784740,0,6,156346600,2401,10,1.21,-35.3632608,149.1652375,593.06,0.036,151.1433,-1.031,0,1
27613,25:28.8,GPS,79984660,0,6,156346800,2401,10,1.21,-35.3632609,149.1652376,593.26,0.036,159.3174,-0.9250001,0,1
27970,25:29.0,GPS,80184580,0,6,156347000,2401,10,1.21,-35.363261,149.1652377,593.43,0.035,167.3908,-0.818,0,1
28325,25:29.2,GPS,80385333,0,6,156347200,2401,10,1.21,-35.363261,149.1652377,593.58,0.035,174.2197,-0.707,0,1
28685,25:29.4,GPS,80585253,0,6,156347400,2401,10,1.21,-35.363261,149.1652377,593.72,0.034,179.6542,-0.5930001,0,1
29043,25:29.6,GPS,80785173,0,6,156347600,2401,10,1.21,-35.3632611,149.1652377,593.82,0.034,184.5065,-0.474,0,1
29397,25:29.8,GPS,80985093,0,6,156347800,2401,10,1.21,-35.3632612,149.1652377,593.9,0.033,189.4482,-0.346,0,1
29754,25:30.0,GPS,81185013,0,6,156348000,2401,10,1.21,-35.3632613,149.1652377,593.95,0.032,194.3026,-0.209,0,1
30111,25:30.2,GPS,81384933,0,6,156348200,2401,10,1.21,-35.3632613,149.1652377,593.99,0.032,198.2307,-0.086,0,1
30471,25:30.4,GPS,81584853,0,6,156348400,2401,10,1.21,-35.3632614,149.1652377,594,0.034,200.6867,0,0,1
30830,25:30.6,GPS,81784773,0,6,156348600,2401,10,1.21,-35.3632614,149.1652377,593.99,0.037,201.8063,0.044,0,1
31184,25:30.8,GPS,81984693,0,6,156348800,2401,10,1.21,-35.3632615,149.1652376,593.98,0.04,202.3639,0.053,0,1
31540,25:31.0,GPS,82184613,0,6,156349000,2401,10,1.21,-35.3632616,149.1652375,593.97,0.041,203.0023,0.041,0,1
31896,25:31.2,GPS,82385366,0,6,156349200,2401,10,1.21,-35.3632616,149.1652375,593.97,0.041,204.1404,0.022,0,1
32257,25:31.4,GPS,82585286,0,6,156349400,2401,10,1.21,-35.3632617,149.1652375,593.96,0.039,206.162,0.003,0,1
32615,25:31.6,GPS,82785206,0,6,156349600,2401,10,1.21,-35.3632617,149.1652375,593.96,0.035,209.3456,-0.011,0,1
32669,25:31.6,GPS,82825190,1,1,0,0,0,-0.01,0,0,0,0,0,0,0,0
32972,25:31.8,GPS,82985126,0,6,156349800,2401,10,1.21,-35.3632618,149.1652375,593.97,0.031,213.7281,-0.019,0,1
33328,25:32.0,GPS,83185046,0,6,156350000,2401,10,1.21,-35.3632619,149.1652374,593.97,0.027,219.2107,-0.023,0,1
33684,25:32.2,GPS,83384966,0,6,156350200,2401,10,1.21,-35.3632619,149.1652374,593.98,0.022,226.0287,-0.024,0,1
34044,25:32.4,GPS,83584886,0,6,156350400,2401,10,1.21,-35.3632619,149.1652373,593.98,0.019,234.5523,-0.025,0,1
34402,25:32.6,GPS,83784806,0,6,156350600,2401,10,1.21,-35.363262,149.1652373,593.99,0.016,244.7711,-0.026,0,1
34756,25:32.8,GPS,83984726,0,6,156350800,2401,10,1.21,-35.363262,149.1652373,593.99,0.013,256.0342,-0.026,0,1
35113,25:33.0,GPS,84184646,0,6,156351000,2401,10,1.21,-35.363262,149.1652373,594,0.012,267.546,-0.026,0,1
35469,25:33.2,GPS,84385399,0,6,156351200,2401,10,1.21,-35.363262,149.1652372,594,0.011,278.3895,-0.026,0,1
35829,25:33.4,GPS,84585319,0,6,156351400,2401,10,1.21,-35.363262,149.1652372,594.01,0.011,287.884,-0.024,0,1
36187,25:33.6,GPS,84785239,0,6,156351600,2401,10,1.21,-35.363262,149.1652372,594.01,0.011,295.3766,-0.022,0,1
36541,25:33.8,GPS,84985159,0,6,156351800,2401,10,1.21,-35.363262,149.1652372,594.02,0.011,300.9875,-0.019,0,1
36897,25:34.0,GPS,85185079,0,6,156352000,2401,10,1.21,-35.363262,149.1652371,594.02,0.011,305.2409,-0.016,0,1
37254,25:34.2,GPS,85384999,0,6,156352200,2401,10,1.21,-35.363262,149.165237,594.02,0.011,308.1741,-0.013,0,1
37614,25:34.4,GPS,85584919,0,6,156352400,2401,10,1.21,-35.363262,149.165237,594.03,0.01,310.1516,-0.011,0,1
37971,25:34.6,GPS,85784839,0,6,156352600,2401,10,1.21,-35.363262,149.165237,594.03,0.009000001,313.3569,-0.009000001,0,1
38326,25:34.8,GPS,85984759,0,6,156352800,2401,10,1.21,-35.363262,149.165237,594.03,0.008,320.0383,-0.009000001,0,1
38682,25:35.0,GPS,86184679,0,6,156353000,2401,10,1.21,-35.363262,149.165237,594.03,0.007,329.8817,-0.01,0,1
39038,25:35.2,GPS,86384599,0,6,156353200,2401,10,1.21,-35.363262,149.165237,594.04,0.005,343.5707,-0.012,0,1
39400,25:35.4,GPS,86585352,0,6,156353400,2401,10,1.21,-35.363262,149.165237,594.04,0.004,2.33237,-0.013,0,1
39756,25:35.6,GPS,86785272,0,6,156353600,2401,10,1.21,-35.3632619,149.165237,594.04,0.004,21.3141,-0.014,0,1
39837,25:35.7,GPS,86845248,1,1,0,0,0,-0.01,0,0,0,0,0,0,0,0
40115,25:35.8,GPS,86985192,0,6,156353800,2401,10,1.21,-35.3632619,149.165237,594.04,0.004,34.8786,-0.013,0,1
40471,25:36.0,GPS,87185112,0,6,156354000,2401,10,1.21,-35.3632619,149.165237,594.05,0.004,45.30587,-0.011,0,1
40832,25:36.2,GPS,87385032,0,6,156354200,2401,10,1.21,-35.3632619,149.165237,594.05,0.005,54.74301,-0.009000001,0,1
41192,25:36.4,GPS,87584952,0,6,156354400,2401,10,1.21,-35.3632619,149.165237,594.05,0.002,34.3382,-0.011,0,1
41547,25:36.6,GPS,87784872,0,6,156354600,2401,10,1.21,-35.3632619,149.165237,594.05,0.018,270.3372,-0.02,0,1
41904,25:36.8,GPS,87984792,0,6,156354800,2401,10,1.21,-35.3632619,149.165237,594.06,0.06900001,266.8192,-0.041,0,1
42260,25:37.0,GPS,88184712,0,6,156355000,2401,10,1.21,-35.3632619,149.1652367,594.07,0.155,266.4869,-0.074,0,1
42616,25:37.2,GPS,88384632,0,6,156355200,2401,10,1.21,-35.3632619,149.1652363,594.08,0.272,266.4733,-0.12,0,1
42976,25:37.4,GPS,88585385,0,6,156355400,2401,10,1.21,-35.3632619,149.1652355,594.12,0.418,266.5138,-0.178,0,1
43331,25:37.6,GPS,88785305,0,6,156355600,2401,10,1.21,-35.3632619,149.1652344,594.16,0.591,266.4962,-0.247,0,1
43689,25:37.8,GPS,88985225,0,6,156355800,2401,10,1.21,-35.363262,149.1652328,594.22,0.79,266.2941,-0.327,0,1
44045,25:38.0,GPS,89185145,0,6,156356000,2401,10,1.21,-35.3632621,149.1652308,594.29,1.013,266.0195,-0.419,0,1
44401,25:38.2,GPS,89385065,0,6,156356200,2401,10,1.21,-35.3632623,149.1652284,594.39,1.258,265.9229,-0.523,0,1
44761,25:38.4,GPS,89584985,0,6,156356400,2401,10,1.21,-35.3632624,149.1652254,594.5,1.53,266.17,-0.64,0,1
45116,25:38.6,GPS,89784905,0,6,156356600,2401,10,1.21,-35.3632626,149.1652217,594.64,1.841,266.6729,-0.7690001,0,1
45474,25:38.8,GPS,89984825,0,6,156356800,2401,10,1.21,-35.3632628,149.1652172,594.81,2.194,267.0955,-0.91,0,1
45831,25:39.0,GPS,90184745,0,6,156357000,2401,10,1.21,-35.363263,149.165212,595.01,2.565,267.2521,-1.057,0,1
46187,25:39.2,GPS,90384665,0,6,156357200,2401,10,1.21,-35.3632633,149.1652059,595.24,2.921,267.2475,-1.204,0,1
46548,25:39.4,GPS,90584585,0,6,156357400,2401,10,1.21,-35.3632635,149.1651991,595.49,3.24,267.2289,-1.342,0,1
46903,25:39.6,GPS,90785338,0,6,156357600,2401,10,1.21,-35.3632638,149.1651916,595.77,3.518,267.2292,-1.465,0,1
47058,25:39.7,GPS,90865306,1,1,0,0,0,-0.01,0,0,0,0,0,0,0,0
47262,25:39.8,GPS,90985258,0,6,156357800,2401,10,1.21,-35.3632641,149.1651837,596.07,3.76,267.2216,-1.573,0,1
47618,25:40.0,GPS,91185178,0,6,156358000,2401,10,1.21,-35.3632645,149.1651752,596.4,3.974,267.1937,-1.665,0,1
47975,25:40.2,GPS,91385098,0,6,156358200,2401,10,1.21,-35.3632648,149.1651662,596.74,4.164,267.1551,-1.745,0,1
48342,25:40.4,GPS,91585018,0,6,156358400,2401,10,1.21,-35.3632652,149.1651569,597.1,4.332,267.1184,-1.81,0,1
48697,25:40.6,GPS,91784938,0,6,156358600,2401,10,1.21,-35.3632656,149.1651471,597.46,4.475,267.085,-1.862,0,1
49055,25:40.8,GPS,91984858,0,6,156358800,2401,10,1.21,-35.363266,149.1651372,597.84,4.593,267.0554,-1.9,0,1
49411,25:41.0,GPS,92184778,0,6,156359000,2401,10,1.21,-35.3632664,149.1651269,598.22,4.684,267.0354,-1.925,0,1
49766,25:41.2,GPS,92384698,0,6,156359200,2401,10,1.21,-35.3632669,149.1651165,598.61,4.745,267.025,-1.938,0,1
50129,25:41.4,GPS,92584618,0,6,156359400,2401,10,1.21,-35.3632674,149.1651061,599,4.779,267.0201,-1.939,0,1
50484,25:41.6,GPS,92785371,0,6,156359600,2401,10,1.21,-35.3632678,149.1650956,599.38,4.798,267.0164,-1.933,0,1
50841,25:41.8,GPS,92985291,0,6,156359800,2401,10,1.21,-35.3632682,149.165085,599.77,4.808,267.0143,-1.922,0,1
51197,25:42.0,GPS,93185211,0,6,156360000,2401,10,1.21,-35.3632687,149.1650744,600.16,4.798,267.0207,-1.904,0,1
51553,25:42.2,GPS,93385131,0,6,156360200,2401,10,1.21,-35.3632691,149.1650639,600.53,4.752,267.0489,-1.875,0,1
51914,25:42.4,GPS,93585051,0,6,156360400,2401,10,1.21,-35.3632695,149.1650535,600.9,4.668,267.2275,-1.835,0,1
52269,25:42.6,GPS,93784971,0,6,156360600,2401,10,1.21,-35.3632699,149.1650434,601.27,4.549,267.8036,-1.783,0,1
52628,25:42.8,GPS,93984891,0,6,156360800,2401,10,1.21,-35.3632702,149.1650335,601.62,4.399,268.9583,-1.719,0,1
52984,25:43.0,GPS,94184811,0,6,156361000,2401,10,1.21,-35.3632702,149.165024,601.95,4.22,270.7811,-1.642,0,1
53339,25:43.2,GPS,94384731,0,6,156361200,2401,10,1.21,-35.36327,149.1650149,602.27,4.019,273.3609,-1.553,0,1
53701,25:43.4,GPS,94584651,0,6,156361400,2401,10,1.21,-35.3632694,149.1650063,602.57,3.801,276.8427,-1.453,0,1
54056,25:43.6,GPS,94785404,0,6,156361600,2401,10,1.21,-35.3632683,149.1649983,602.85,3.574,281.4436,-1.341,0,1
54235,25:43.7,GPS,94885364,1,1,0,0,0,-0.01,0,0,0,0,0,0,0,0
54415,25:43.8,GPS,94985324,0,6,156361800,2401,10,1.21,-35.3632669,149.1649909,603.11,3.352,287.428,-1.218,0,1
54771,25:44.0,GPS,95185244,0,6,156362000,2401,10,1.21,-35.3632647,149.1649843,603.33,3.157,295.0478,-1.086,0,1
55131,25:44.2,GPS,95385164,0,6,156362200,2401,10,1.21,-35.363262,149.1649784,603.54,3.029,304.2864,-0.9540001,0,1
55492,25:44.4,GPS,95585084,0,6,156362400,2401,10,1.21,-35.3632585,149.1649732,603.72,3.013,314.5106,-0.831,0,1
55847,25:44.6,GPS,95785004,0,6,156362600,2401,10,1.21,-35.3632544,149.1649689,603.88,3.137,324.5151,-0.726,0,1
56205,25:44.8,GPS,95984924,0,6,156362800,2401,10,1.21,-35.3632494,149.1649651,604.01,3.4,333.1859,-0.641,0,1
56562,25:45.0,GPS,96184844,0,6,156363000,2401,10,1.21,-35.3632434,149.1649621,604.13,3.769,340.0247,-0.574,0,1
56916,25:45.2,GPS,96384764,0,6,156363200,2401,10,1.21,-35.3632366,149.1649595,604.24,4.203,345.1198,-0.524,0,1
57279,25:45.4,GPS,96584684,0,6,156363400,2401,10,1.21,-35.3632288,149.1649573,604.35,4.669,348.7968,-0.489,0,1
57636,25:45.6,GPS,96784604,0,6,156363600,2401,10,1.21,-35.3632202,149.1649555,604.44,5.15,351.3867,-0.468,0,1
57992,25:45.8,GPS,96985357,0,6,156363800,2401,10,1.21,-35.3632106,149.1649539,604.53,5.635,353.1565,-0.46,0,1
58349,25:46.0,GPS,97185277,0,6,156364000,2401,10,1.21,-35.3632001,149.1649524,604.62,6.119,354.2919,-0.466,0,1
58704,25:46.2,GPS,97385197,0,6,156364200,2401,10,1.21,-35.3631886,149.1649512,604.72,6.599,354.9285,-0.485,0,1
59067,25:46.4,GPS,97585117,0,6,156364400,2401,10,1.21,-35.3631764,149.1649499,604.82,7.071,355.1771,-0.517,0,1
59422,25:46.6,GPS,97785037,0,6,156364600,2401,10,1.21,-35.3631634,149.1649486,604.93,7.515,355.192,-0.555,0,1
59779,25:46.8,GPS,97984957,0,6,156364800,2401,10,1.21,-35.3631496,149.1649471,605.04,7.913001,355.1461,-0.5930001,0,1
60136,25:47.0,GPS,98184877,0,6,156365000,2401,10,1.21,-35.363135,149.1649456,605.16,8.265,355.1202,-0.625,0,1
60491,25:47.2,GPS,98384797,0,6,156365200,2401,10,1.21,-35.3631199,149.164944,605.29,8.578,355.1166,-0.652,0,1
60854,25:47.4,GPS,98584717,0,6,156365400,2401,10,1.21,-35.3631044,149.1649423,605.43,8.857,355.1245,-0.674,0,1
61209,25:47.6,GPS,98784637,0,6,156365600,2401,10,1.21,-35.3630883,149.1649407,605.56,9.102,355.1341,-0.691,0,1
61416,25:47.7,GPS,98904589,1,1,0,0,0,-0.01,0,0,0,0,0,0,0,0
61568,25:47.8,GPS,98985390,0,6,156365800,2401,10,1.21,-35.3630718,149.164939,605.7,9.316,355.1385,-0.706,0,1
61926,25:48.0,GPS,99185310,0,6,156366000,2401,10,1.21,-35.3630549,149.1649372,605.85,9.497001,355.1346,-0.717,0,1
62281,25:48.2,GPS,99385230,0,6,156366200,2401,10,1.21,-35.3630378,149.1649354,605.99,9.645,355.1223,-0.725,0,1
62644,25:48.4,GPS,99585150,0,6,156366400,2401,10,1.21,-35.3630205,149.1649336,606.13,9.759001,355.1027,-0.73,0,1
62999,25:48.6,GPS,99785070,0,6,156366600,2401,10,1.21,-35.3630029,149.1649317,606.28,9.841001,355.0792,-0.733,0,1
63356,25:48.8,GPS,99984990,0,6,156366800,2401,10,1.21,-35.3629852,149.1649299,606.43,9.888,355.0536,-0.734,0,1
63713,25:49.0,GPS,100184910,0,6,156367000,2401,10,1.21,-35.3629675,149.164928,606.57,9.908001,355.0257,-0.7320001,0,1
64068,25:49.2,GPS,100384830,0,6,156367200,2401,10,1.21,-35.3629497,149.1649261,606.72,9.921,354.9968,-0.728,0,1
64430,25:49.4,GPS,100584750,0,6,156367400,2401,10,1.21,-35.362932,149.1649242,606.87,9.938001,354.964,-0.726,0,1
64786,25:49.6,GPS,100784670,0,6,156367600,2401,10,1.21,-35.3629142,149.1649223,607.01,9.96,354.9243,-0.725,0,1
65143,25:49.8,GPS,100984590,0,6,156367800,2401,10,1.21,-35.3628963,149.1649203,607.16,9.982,354.8801,-0.725,0,1
65500,25:50.0,GPS,101185343,0,6,156368000,2401,10,1.21,-35.3628784,149.1649184,607.3,10.003,354.8354,-0.726,0,1
65855,25:50.2,GPS,101385263,0,6,156368200,2401,10,1.21,-35.3628605,149.1649163,607.45,10.017,354.7954,-0.726,0,1
66217,25:50.4,GPS,101585183,0,6,156368400,2401,10,1.21,-35.3628426,149.1649143,607.59,10.027,354.7621,-0.726,0,1
66575,25:50.6,GPS,101785103,0,6,156368600,2401,10,1.21,-35.3628247,149.1649123,607.74,10.033,354.7332,-0.7270001,0,1
66932,25:50.8,GPS,101985023,0,6,156368800,2401,10,1.21,-35.3628068,149.1649103,607.88,10.036,354.7088,-0.7270001,0,1
67290,25:51.0,GPS,102184943,0,6,156369000,2401,10,1.21,-35.3627888,149.1649082,608.03,10.036,354.6888,-0.7270001,0,1
67645,25:51.2,GPS,102384863,0,6,156369200,2401,10,1.21,-35.3627709,149.1649062,608.17,10.033,354.6707,-0.7270001,0,1
68008,25:51.4,GPS,102584783,0,6,156369400,2401,10,1.21,-35.3627528,149.1649041,608.32,10.03,354.6528,-0.7270001,0,1
68364,25:51.6,GPS,102784703,0,6,156369600,2401,10,1.21,-35.3627349,149.1649021,608.47,10.027,354.6357,-0.726,0,1
68595,25:51.7,GPS,102924647,1,1,0,0,0,-0.01,0,0,0,0,0,0,0,0
68723,25:51.8,GPS,102984623,0,6,156369800,2401,10,1.21,-35.362717,149.1649,608.61,10.024,354.6196,-0.726,0,1
69080,25:52.0,GPS,103185376,0,6,156370000,2401,10,1.21,-35.3626991,149.1648979,608.76,10.021,354.6046,-0.726,0,1
69435,25:52.2,GPS,103385296,0,6,156370200,2401,10,1.21,-35.3626811,149.1648958,608.9,10.016,354.5898,-0.726,0,1
69797,25:52.4,GPS,103585216,0,6,156370400,2401,10,1.21,-35.3626632,149.1648937,609.05,10.014,354.5759,-0.725,0,1
70153,25:52.6,GPS,103785136,0,6,156370600,2401,10,1.21,-35.3626453,149.1648917,609.19,10.016,354.5647,-0.725,0,1
70510,25:52.8,GPS,103985056,0,6,156370800,2401,10,1.21,-35.3626274,149.1648896,609.33,10.021,354.5558,-0.725,0,1
70867,25:53.0,GPS,104184976,0,6,156371000,2401,10,1.21,-35.3626095,149.1648875,609.48,10.027,354.5484,-0.724,0,1
71222,25:53.2,GPS,104384896,0,6,156371200,2401,10,1.21,-35.3625916,149.1648854,609.63,10.033,354.5415,-0.723,0,1
71584,25:53.4,GPS,104584816,0,6,156371400,2401,10,1.21,-35.3625736,149.1648833,609.77,10.038,354.5344,-0.7220001,0,1
71940,25:53.6,GPS,104784736,0,6,156371600,2401,10,1.21,-35.3625556,149.1648812,609.92,10.042,354.5274,-0.7220001,0,1
72297,25:53.8,GPS,104984656,0,6,156371800,2401,10,1.21,-35.3625377,149.164879,610.06,10.045,354.5204,-0.7220001,0,1
72653,25:54.0,GPS,105185409,0,6,156372000,2401,10,1.21,-35.3625197,149.1648769,610.21,10.048,354.5143,-0.7220001,0,1
73009,25:54.2,GPS,105385329,0,6,156372200,2401,10,1.21,-35.3625017,149.1648748,610.35,10.047,354.5106,-0.7220001,0,1
73371,25:54.4,GPS,105585249,0,6,156372400,2401,10,1.21,-35.3624838,149.1648727,610.49,10.044,354.5092,-0.723,0,1
73727,25:54.6,GPS,105785169,0,6,156372600,2401,10,1.21,-35.3624658,149.1648706,610.64,10.039,354.5102,-0.723,0,1
74083,25:54.8,GPS,105985089,0,6,156372800,2401,10,1.21,-35.3624479,149.1648685,610.78,10.036,354.5122,-0.7220001,0,1
74440,25:55.0,GPS,106185009,0,6,156373000,2401,10,1.21,-35.3624299,149.1648664,610.93,10.032,354.5136,-0.7220001,0,1
74796,25:55.2,GPS,106384929,0,6,156373200,2401,10,1.21,-35.362412,149.1648642,611.07,10.028,354.5137,-0.7220001,0,1
75159,25:55.4,GPS,106584849,0,6,156373400,2401,10,1.21,-35.3623941,149.1648621,611.22,10.023,354.5123,-0.7220001,0,1
75518,25:55.6,GPS,106784769,0,6,156373600,2401,10,1.21,-35.3623761,149.16486,611.36,10.019,354.5101,-0.7220001,0,1
75775,25:55.8,GPS,106944705,1,1,0,0,0,-0.01,0,0,0,0,0,0,0,0
75876,25:55.8,GPS,106984689,0,6,156373800,2401,10,1.21,-35.3623582,149.1648579,611.51,10.016,354.5079,-0.723,0,1
76247,25:56.0,GPS,107184609,0,6,156374000,2401,10,1.21,-35.3623403,149.1648558,611.65,10.012,354.5062,-0.723,0,1
76696,25:56.2,GPS,107385362,0,6,156374200,2401,10,1.21,-35.3623224,149.1648537,611.8,10.002,354.5056,-0.723,0,1
77060,25:56.4,GPS,107585282,0,6,156374400,2401,10,1.21,-35.3623046,149.1648516,611.94,9.919001,354.5131,-0.696,0,1
77417,25:56.6,GPS,107785202,0,6,156374600,2401,10,1.21,-35.3622869,149.1648495,612.07,9.712001,354.5363,-0.617,0,1
77773,25:56.8,GPS,107985122,0,6,156374800,2401,10,1.21,-35.3622699,149.1648475,612.18,9.421,354.5764,-0.506,0,1
78176,25:57.0,GPS,108185042,0,6,156375000,2401,10,1.21,-35.3622533,149.1648456,612.27,9.089001,354.6313,-0.397,0,1
78531,25:57.2,GPS,108384962,0,6,156375200,2401,10,1.21,-35.3622374,149.1648438,612.34,8.727,354.6985,-0.306,0,1
78895,25:57.4,GPS,108584882,0,6,156375400,2401,10,1.21,-35.3622221,149.164842,612.4,8.337001,354.776,-0.24,0,1
79251,25:57.6,GPS,108784802,0,6,156375600,2401,10,1.21,-35.3622076,149.1648405,612.44,7.919,354.8613,-0.198,0,1
79607,25:57.8,GPS,108984722,0,6,156375800,2401,10,1.21,-35.3621938,149.1648389,612.48,7.468,354.9519,-0.175,0,1
79965,25:58.0,GPS,109184642,0,6,156376000,2401,10,1.21,-35.3621808,149.1648375,612.51,6.986001,355.044,-0.167,0,1
80320,25:58.2,GPS,109385395,0,6,156376200,2401,10,1.21,-35.3621687,149.1648363,612.54,6.471,355.1396,-0.171,0,1
80684,25:58.4,GPS,109585315,0,6,156376400,2401,10,1.21,-35.3621577,149.1648351,612.57,5.92,355.2477,-0.182,0,1
81040,25:58.6,GPS,109785235,0,6,156376600,2401,10,1.21,-35.3621476,149.1648341,612.62,5.32,355.3807,-0.2,0,1
81396,25:58.8,GPS,109985155,0,6,156376800,2401,10,1.21,-35.3621386,149.1648333,612.66,4.668,355.5568,-0.221,0,1
81754,25:59.0,GPS,110185075,0,6,156377000,2401,10,1.21,-35.3621309,149.1648325,612.7,4.006,355.7798,-0.246,0,1
82109,25:59.2,GPS,110384995,0,6,156377200,2401,10,1.21,-35.3621243,149.1648319,612.76,3.393,356.0284,-0.269,0,1
82473,25:59.4,GPS,110584915,0,6,156377400,2401,10,1.21,-35.3621187,149.1648315,612.81,2.866,356.2711,-0.289,0,1
82828,25:59.6,GPS,110784835,0,6,156377600,2401,10,1.21,-35.362114,149.1648311,612.88,2.444,356.4639,-0.305,0,1
83158,25:59.8,GPS,110964763,1,1,0,0,0,-0.01,0,0,0,0,0,0,0,0
83186,25:59.8,GPS,110984755,0,6,156377800,2401,10,1.21,-35.3621099,149.1648308,612.93,2.135,356.554,-0.319,0,1
83545,26:00.0,GPS,111184675,0,6,156378000,2401,10,1.21,-35.3621062,149.1648305,613,1.932,356.498,-0.331,0,1
83900,26:00.2,GPS,111384595,0,6,156378200,2401,10,1.21,-35.3621028,149.1648303,613.07,1.822,356.3059,-0.34,0,1
84263,26:00.4,GPS,111585348,0,6,156378400,2401,10,1.21,-35.3620997,149.16483,613.14,1.786,356.0449,-0.348,0,1
84620,26:00.6,GPS,111785268,0,6,156378600,2401,10,1.21,-35.3620964,149.1648297,613.21,1.802,355.7719,-0.353,0,1
84976,26:00.8,GPS,111985188,0,6,156378800,2401,10,1.21,-35.3620932,149.1648294,613.28,1.849,355.5212,-0.356,0,1
85333,26:01.0,GPS,112185108,0,6,156379000,2401,10,1.21,-35.3620898,149.1648291,613.35,1.915,355.3265,-0.357,0,1
85688,26:01.2,GPS,112385028,0,6,156379200,2401,10,1.21,-35.3620863,149.1648288,613.42,1.995,355.2316,-0.356,0,1
86053,26:01.4,GPS,112584948,0,6,156379400,2401,10,1.21,-35.3620827,149.1648283,613.49,2.085,355.3964,-0.356,0,1
86408,26:01.6,GPS,112784868,0,6,156379600,2401,10,1.21,-35.3620788,149.164828,613.56,2.171,356.0773,-0.356,0,1
86764,26:01.8,GPS,112984788,0,6,156379800,2401,10,1.21,-35.3620748,149.1648278,613.64,2.242,357.4027,-0.357,0,1
87121,26:02.0,GPS,113184708,0,6,156380000,2401,10,1.21,-35.3620708,149.1648276,613.71,2.294,359.333,-0.358,0,1
87475,26:02.2,GPS,113384628,0,6,156380200,2401,10,1.21,-35.3620667,149.1648276,613.78,2.326,1.81195,-0.359,0,1
87840,26:02.4,GPS,113585381,0,6,156380400,2401,10,1.21,-35.3620624,149.1648278,613.85,2.34,4.82748,-0.361,0,1
88195,26:02.6,GPS,113785301,0,6,156380600,2401,10,1.21,-35.3620583,149.1648284,613.92,2.342,8.38993,-0.364,0,1
88551,26:02.8,GPS,113985221,0,6,156380800,2401,10,1.21,-35.3620541,149.1648293,614,2.336,12.52419,-0.368,0,1
88909,26:03.0,GPS,114185141,0,6,156381000,2401,10,1.21,-35.3620501,149.1648306,614.07,2.33,17.24931,-0.373,0,1
89266,26:03.2,GPS,114385061,0,6,156381200,2401,10,1.21,-35.3620461,149.1648324,614.15,2.339,22.47794,-0.381,0,1
89630,26:03.4,GPS,114584981,0,6,156381400,2401,10,1.21,-35.3620424,149.1648346,614.23,2.386,27.89757,-0.394,0,1
89986,26:03.6,GPS,114784901,0,6,156381600,2401,10,1.21,-35.3620386,149.1648374,614.31,2.491,32.99239,-0.415,0,1
90342,26:03.8,GPS,114984821,0,6,156381800,2401,10,1.21,-35.3620347,149.1648406,614.39,2.672,37.27998,-0.445,0,1
90344,26:03.8,GPS,114984821,1,1,0,0,0,-0.01,0,0,0,0,0,0,0,0
90701,26:04.0,GPS,115184741,0,6,156382000,2401,10,1.21,-35.3620308,149.1648445,614.49,2.928,40.55976,-0.487,0,1
91055,26:04.2,GPS,115384661,0,6,156382200,2401,10,1.21,-35.3620267,149.164849,614.58,3.254,42.92663,-0.538,0,1
91419,26:04.4,GPS,115584581,0,6,156382400,2401,10,1.21,-35.3620223,149.1648543,614.7,3.632,44.57725,-0.597,0,1
91776,26:04.6,GPS,115785334,0,6,156382600,2401,10,1.21,-35.3620174,149.1648602,614.83,4.037,45.67735,-0.663,0,1
92132,26:04.8,GPS,115985254,0,6,156382800,2401,10,1.21,-35.3620121,149.164867,614.97,4.459,46.35546,-0.733,0,1
92490,26:05.0,GPS,116185174,0,6,156383000,2401,10,1.21,-35.3620064,149.1648745,615.12,4.894,46.70999,-0.808,0,1
92844,26:05.2,GPS,116385094,0,6,156383200,2401,10,1.21,-35.3620001,149.1648827,615.29,5.342,46.86233,-0.886,0,1
93208,26:05.4,GPS,116585014,0,6,156383400,2401,10,1.21,-35.3619932,149.1648917,615.47,5.794,46.9745,-0.965,0,1
93564,26:05.6,GPS,116784934,0,6,156383600,2401,10,1.21,-35.3619858,149.1649014,615.67,6.242,47.13273,-1.045,0,1
93923,26:05.8,GPS,116984854,0,6,156383800,2401,10,1.21,-35.361978,149.1649118,615.89,6.684,47.32373,-1.123,0,1
94281,26:06.0,GPS,117184774,0,6,156384000,2401,10,1.21,-35.3619696,149.1649231,616.13,7.11,47.51679,-1.198,0,1
94635,26:06.2,GPS,117384694,0,6,156384200,2401,10,1.21,-35.3619607,149.164935,616.37,7.503,47.69007,-1.269,0,1
94999,26:06.4,GPS,117584614,0,6,156384400,2401,10,1.21,-35.3619514,149.1649474,616.63,7.861001,47.83409,-1.333,0,1
95355,26:06.6,GPS,117785367,0,6,156384600,2401,10,1.21,-35.3619417,149.1649606,616.91,8.187,47.94652,-1.39,0,1
95711,26:06.8,GPS,117985287,0,6,156384800,2401,10,1.21,-35.3619317,149.1649742,617.19,8.481,48.02701,-1.439,0,1
96070,26:07.0,GPS,118185207,0,6,156385000,2401,10,1.21,-35.3619214,149.1649884,617.48,8.748,48.08053,-1.483,0,1
96424,26:07.2,GPS,118385127,0,6,156385200,2401,10,1.21,-35.3619107,149.1650029,617.78,8.993,48.11361,-1.52,0,1
96788,26:07.4,GPS,118585047,0,6,156385400,2401,10,1.21,-35.3618999,149.1650178,618.09,9.213,48.13046,-1.551,0,1
97145,26:07.6,GPS,118784967,0,6,156385600,2401,10,1.21,-35.3618887,149.165033,618.4,9.402,48.13355,-1.576,0,1
97501,26:07.8,GPS,118984887,0,6,156385800,2401,10,1.21,-35.3618773,149.1650486,618.72,9.557,48.1256,-1.595,0,1
97529,26:07.8,GPS,119004879,1,1,0,0,0,-0.01,0,0,0,0,0,0,0,0
97862,26:08.0,GPS,119184807,0,6,156386000,2401,10,1.21,-35.3618658,149.1650644,619.04,9.679001,48.11276,-1.608,0,1
98216,26:08.2,GPS,119384727,0,6,156386200,2401,10,1.21,-35.3618541,149.1650804,619.36,9.763,48.0987,-1.616,0,1
98580,26:08.4,GPS,119584647,0,6,156386400,2401,10,1.21,-35.3618423,149.1650965,619.69,9.813001,48.08255,-1.618,0,1
98936,26:08.6,GPS,119785400,0,6,156386600,2401,10,1.21,-35.3618306,149.1651126,620.01,9.843,48.06361,-1.617,0,1
99292,26:08.8,GPS,119985320,0,6,156386800,2401,10,1.21,-35.3618187,149.1651287,620.33,9.868,48.04096,-1.615,0,1
99651,26:09.0,GPS,120185240,0,6,156387000,2401,10,1.21,-35.3618068,149.1651449,620.66,9.894,48.01472,-1.614,0,1
100005,26:09.2,GPS,120385160,0,6,156387200,2401,10,1.21,-35.3617949,149.1651611,620.98,9.921,47.98718,-1.615,0,1
100369,26:09.4,GPS,120585080,0,6,156387400,2401,10,1.21,-35.361783,149.1651774,621.3,9.946,47.96142,-1.617,0,1
100725,26:09.6,GPS,120785000,0,6,156387600,2401,10,1.21,-35.361771,149.1651936,621.63,9.965,47.94004,-1.62,0,1
101081,26:09.8,GPS,120984920,0,6,156387800,2401,10,1.21,-35.361759,149.1652099,621.95,9.976001,47.92409,-1.623,0,1
101440,26:10.0,GPS,121184840,0,6,156388000,2401,10,1.21,-35.3617469,149.1652263,622.28,9.983001,47.91129,-1.627,0,1
101794,26:10.2,GPS,121384760,0,6,156388200,2401,10,1.21,-35.3617349,149.1652427,622.6,9.987,47.89945,-1.63,0,1
102158,26:10.4,GPS,121584680,0,6,156388400,2401,10,1.21,-35.3617228,149.165259,622.93,9.990001,47.88912,-1.633,0,1
102514,26:10.6,GPS,121784600,0,6,156388600,2401,10,1.21,-35.3617109,149.1652753,623.25,9.990001,47.88008,-1.637,0,1
102872,26:10.8,GPS,121985353,0,6,156388800,2401,10,1.21,-35.3616988,149.1652916,623.58,9.987,47.86993,-1.64,0,1
103231,26:11.0,GPS,122185273,0,6,156389000,2401,10,1.21,-35.3616868,149.1653079,623.91,9.969001,47.85983,-1.641,0,1
103586,26:11.2,GPS,122385193,0,6,156389200,2401,10,1.21,-35.3616748,149.1653241,624.24,9.918,47.85257,-1.638,0,1
103953,26:11.4,GPS,122585113,0,6,156389400,2401,10,1.21,-35.3616629,149.1653403,624.56,9.826,47.84727,-1.627,0,1
104310,26:11.6,GPS,122785033,0,6,156389600,2401,10,1.21,-35.3616511,149.1653562,624.89,9.694,47.84285,-1.608,0,1
104666,26:11.8,GPS,122984953,0,6,156389800,2401,10,1.21,-35.3616395,149.1653719,625.2,9.524,47.8391,-1.581,0,1
104720,26:11.8,GPS,123024937,1,1,0,0,0,-0.01,0,0,0,0,0,0,0,0
105028,26:12.0,GPS,123184873,0,6,156390000,2401,10,1.21,-35.3616282,149.1653873,625.52,9.318001,47.83645,-1.545,0,1
105382,26:12.2,GPS,123384793,0,6,156390200,2401,10,1.21,-35.361617,149.1654023,625.82,9.078,47.83549,-1.502,0,1
105745,26:12.4,GPS,123584713,0,6,156390400,2401,10,1.21,-35.3616063,149.165417,626.12,8.802,47.8358,-1.452,0,1
106102,26:12.6,GPS,123784633,0,6,156390600,2401,10,1.21,-35.3615959,149.1654311,626.41,8.492001,47.83738,-1.395,0,1
106458,26:12.8,GPS,123985386,0,6,156390800,2401,10,1.21,-35.3615858,149.1654447,626.68,8.144,47.8395,-1.332,0,1
106816,26:13.0,GPS,124185306,0,6,156391000,2401,10,1.21,-35.3615762,149.1654577,626.94,7.757,47.8388,-1.263,0,1
107171,26:13.2,GPS,124385226,0,6,156391200,2401,10,1.21,-35.3615671,149.1654699,627.19,7.329,47.83276,-1.187,0,1
107534,26:13.4,GPS,124585146,0,6,156391400,2401,10,1.21,-35.3615586,149.1654816,627.42,6.862,47.824,-1.107,0,1
107892,26:13.6,GPS,124785066,0,6,156391600,2401,10,1.21,-35.3615506,149.1654924,627.63,6.367,47.81739,-1.024,0,1
108248,26:13.8,GPS,124984986,0,6,156391800,2401,10,1.21,-35.3615432,149.1655023,627.82,5.856,47.83183,-0.9400001,0,1
108606,26:14.0,GPS,125184906,0,6,156392000,2401,10,1.21,-35.3615365,149.1655114,628,5.322,47.93981,-0.854,0,1
108961,26:14.2,GPS,125384826,0,6,156392200,2401,10,1.21,-35.3615304,149.1655197,628.16,4.748,48.2558,-0.7640001,0,1
109324,26:14.4,GPS,125584746,0,6,156392400,2401,10,1.21,-35.3615251,149.1655271,628.31,4.13,48.89957,-0.671,0,1
109681,26:14.6,GPS,125784666,0,6,156392600,2401,10,1.21,-35.3615207,149.1655334,628.43,3.47,50.05276,-0.575,0,1
110036,26:14.8,GPS,125984586,0,6,156392800,2401,10,1.21,-35.3615171,149.1655387,628.54,2.773,52.10508,-0.474,0,1
110394,26:15.0,GPS,126185339,0,6,156393000,2401,10,1.21,-35.3615146,149.165543,628.62,2.056,56.00943,-0.372,0,1
110749,26:15.2,GPS,126385259,0,6,156393200,2401,10,1.21,-35.361513,149.1655463,628.68,1.361,64.52452,-0.273,0,1
111111,26:15.4,GPS,126585179,0,6,156393400,2401,10,1.21,-35.3615125,149.1655485,628.73,0.777,87.90594,-0.178,0,1
111471,26:15.6,GPS,126785099,0,6,156393600,2401,10,1.21,-35.3615129,149.1655497,628.76,0.594,145.5668,-0.089,0,1
111828,26:15.8,GPS,126985019,0,6,156393800,2401,10,1.21,-35.3615142,149.16555,628.77,0.9620001,184.3747,-0.004,0,1
111882,26:15.8,GPS,127025003,1,1,0,0,0,-0.01,0,0,0,0,0,0,0,0
112186,26:16.0,GPS,127184939,0,6,156394000,2401,10,1.21,-35.3615163,149.1655495,628.76,1.456,196.2944,0.078,0,1
112542,26:16.2,GPS,127384859,0,6,156394200,2401,10,1.21,-35.3615191,149.1655483,628.74,1.944,200.7461,0.157,0,1
112904,26:16.4,GPS,127584779,0,6,156394400,2401,10,1.21,-35.3615228,149.1655465,628.69,2.413,203.2262,0.228,0,1
113261,26:16.6,GPS,127784699,0,6,156394600,2401,10,1.21,-35.3615271,149.1655441,628.65,2.859,205.2263,0.285,0,1
113616,26:16.8,GPS,127984619,0,6,156394800,2401,10,1.21,-35.3615321,149.1655411,628.58,3.266,207.0446,0.326,0,1
113973,26:17.0,GPS,128185372,0,6,156395000,2401,10,1.21,-35.3615375,149.1655376,628.52,3.609,208.5333,0.353,0,1
114329,26:17.2,GPS,128385292,0,6,156395200,2401,10,1.21,-35.3615434,149.1655336,628.44,3.87,209.3764,0.37,0,1
114692,26:17.4,GPS,128585212,0,6,156395400,2401,10,1.21,-35.3615496,149.1655293,628.37,4.048,209.2446,0.387,0,1
115049,26:17.6,GPS,128785132,0,6,156395600,2401,10,1.21,-35.3615561,149.1655249,628.29,4.179,208.2041,0.409,0,1
115405,26:17.8,GPS,128985052,0,6,156395800,2401,10,1.21,-35.3615628,149.1655206,628.2,4.301,206.918,0.433,0,1
115761,26:18.0,GPS,129184972,0,6,156396000,2401,10,1.21,-35.3615699,149.1655164,628.11,4.421,205.9624,0.451,0,1
116117,26:18.2,GPS,129384892,0,6,156396200,2401,10,1.21,-35.3615771,149.1655121,628.02,4.526,205.4317,0.463,0,1
116480,26:18.4,GPS,129584812,0,6,156396400,2401,10,1.21,-35.3615846,149.1655078,627.93,4.615,205.2053,0.472,0,1
116837,26:18.6,GPS,129784732,0,6,156396600,2401,10,1.21,-35.3615921,149.1655033,627.83,4.69,205.1305,0.48,0,1
117192,26:18.8,GPS,129984652,0,6,156396800,2401,10,1.21,-35.3615998,149.165499,627.74,4.755,205.0965,0.487,0,1
117549,26:19.0,GPS,130185405,0,6,156397000,2401,10,1.21,-35.3616076,149.1654945,627.64,4.811,205.0531,0.493,0,1
117905,26:19.2,GPS,130385325,0,6,156397200,2401,10,1.21,-35.3616155,149.16549,627.54,4.86,204.9933,0.498,0,1
118267,26:19.4,GPS,130585245,0,6,156397400,2401,10,1.21,-35.3616234,149.1654855,627.44,4.904,204.9205,0.501,0,1
118624,26:19.6,GPS,130785165,0,6,156397600,2401,10,1.21,-35.3616314,149.1654809,627.33,4.942,204.8379,0.502,0,1
118980,26:19.8,GPS,130985085,0,6,156397800,2401,10,1.21,-35.3616395,149.1654764,627.24,4.976,204.7507,0.502,0,1
119058,26:19.9,GPS,131045061,1,1,0,0,0,-0.01,0,0,0,0,0,0,0,0
119338,26:20.0,GPS,131185005,0,6,156398000,2401,10,1.21,-35.3616477,149.1654717,627.14,5.008,204.6625,0.5,0,1
119694,26:20.2,GPS,131384925,0,6,156398200,2401,10,1.21,-35.3616559,149.1654672,627.04,5.036,204.578,0.496,0,1
120057,26:20.4,GPS,131584845,0,6,156398400,2401,10,1.21,-35.3616641,149.1654625,626.94,5.061,204.5018,0.492,0,1
120413,26:20.6,GPS,131784765,0,6,156398600,2401,10,1.21,-35.3616724,149.1654578,626.85,5.084,204.4349,0.487,0,1
120769,26:20.8,GPS,131984685,0,6,156398800,2401,10,1.21,-35.3616808,149.1654532,626.75,5.107,204.3784,0.481,0,1
121128,26:21.0,GPS,132184605,0,6,156399000,2401,10,1.21,-35.3616892,149.1654486,626.65,5.127,204.3334,0.474,0,1
121484,26:21.2,GPS,132385358,0,6,156399200,2401,10,1.21,-35.3616976,149.1654439,626.56,5.147,204.2973,0.468,0,1
121847,26:21.4,GPS,132585278,0,6,156399400,2401,10,1.21,-35.361706,149.1654393,626.46,5.165,204.268,0.46,0,1
122202,26:21.6,GPS,132785198,0,6,156399600,2401,10,1.21,-35.3617145,149.1654346,626.37,5.183,204.2459,0.452,0,1
122560,26:21.8,GPS,132985118,0,6,156399800,2401,10,1.21,-35.361723,149.1654299,626.28,5.199,204.2312,0.445,0,1
122916,26:22.0,GPS,133185038,0,6,156400000,2401,10,1.21,-35.3617315,149.1654252,626.19,5.214,204.2225,0.439,0,1
123272,26:22.2,GPS,133384958,0,6,156400200,2401,10,1.21,-35.3617401,149.1654204,626.11,5.228,204.219,0.434,0,1
123635,26:22.4,GPS,133584878,0,6,156400400,2401,10,1.21,-35.3617487,149.1654157,626.02,5.241,204.2186,0.429,0,1
123990,26:22.6,GPS,133784798,0,6,156400600,2401,10,1.21,-35.3617573,149.165411,625.94,5.253,204.2174,0.424,0,1
124347,26:22.8,GPS,133984718,0,6,156400800,2401,10,1.21,-35.3617658,149.1654062,625.85,5.265,204.2124,0.419,0,1
124704,26:23.0,GPS,134184638,0,6,156401000,2401,10,1.21,-35.3617745,149.1654015,625.77,5.276,204.2047,0.413,0,1
125060,26:23.2,GPS,134385391,0,6,156401200,2401,10,1.21,-35.3617832,149.1653967,625.69,5.287,204.1991,0.408,0,1
125422,26:23.4,GPS,134585311,0,6,156401400,2401,10,1.21,-35.3617918,149.1653919,625.61,5.299,204.1984,0.402,0,1
125778,26:23.6,GPS,134785231,0,6,156401600,2401,10,1.21,-35.3618005,149.1653872,625.53,5.31,204.2007,0.396,0,1
126135,26:23.8,GPS,134985151,0,6,156401800,2401,10,1.21,-35.3618092,149.1653824,625.44,5.32,204.2027,0.39,0,1
126290,26:23.9,GPS,135065119,1,1,0,0,0,-0.01,0,0,0,0,0,0,0,0
126493,26:24.0,GPS,135185071,0,6,156402000,2401,10,1.21,-35.361818,149.1653775,625.37,5.331,204.1861,0.383,0,1
126849,26:24.2,GPS,135384991,0,6,156402200,2401,10,1.21,-35.3618267,149.1653727,625.29,5.341,204.1048,0.374,0,1
127258,26:24.4,GPS,135584911,0,6,156402400,2401,10,1.21,-35.3618355,149.1653679,625.22,5.351,203.9192,0.361,0,1
127613,26:24.6,GPS,135784831,0,6,156402600,2401,10,1.21,-35.3618443,149.1653632,625.15,5.361,203.6111,0.343,0,1
127970,26:24.8,GPS,135984751,0,6,156402800,2401,10,1.21,-35.3618531,149.1653585,625.08,5.367,203.1662,0.321,0,1
128327,26:25.0,GPS,136184671,0,6,156403000,2401,10,1.21,-35.361862,149.1653538,625.02,5.366,202.5959,0.295,0,1
128682,26:25.2,GPS,136384591,0,6,156403200,2401,10,1.21,-35.3618709,149.1653493,624.96,5.353,201.9297,0.264,0,1
129045,26:25.4,GPS,136585344,0,6,156403400,2401,10,1.21,-35.3618799,149.1653451,624.92,5.325,201.1846,0.229,0,1
129401,26:25.6,GPS,136785264,0,6,156403600,2401,10,1.21,-35.3618888,149.1653409,624.88,5.281,200.3622,0.189,0,1
129758,26:25.8,GPS,136985184,0,6,156403800,2401,10,1.21,-35.3618977,149.165337,624.84,5.225,199.4557,0.144,0,1
130116,26:26.0,GPS,137185104,0,6,156404000,2401,10,1.21,-35.3619065,149.1653332,624.82,5.158,198.4531,0.093,0,1
130471,26:26.2,GPS,137385024,0,6,156404200,2401,10,1.21,-35.3619152,149.1653298,624.8,5.082,197.3305,0.035,0,1
130835,26:26.4,GPS,137584944,0,6,156404400,2401,10,1.21,-35.3619239,149.1653266,624.8,5.001,196.0613,-0.028,0,1
131190,26:26.6,GPS,137784864,0,6,156404600,2401,10,1.21,-35.3619324,149.1653237,624.82,4.928,194.638,-0.1,0,1
131547,26:26.8,GPS,137984784,0,6,156404800,2401,10,1.21,-35.361941,149.1653211,624.84,4.877,193.0608,-0.179,0,1
131904,26:27.0,GPS,138184704,0,6,156405000,2401,10,1.21,-35.3619496,149.1653188,624.89,4.851,191.3287,-0.268,0,1
132259,26:27.2,GPS,138384624,0,6,156405200,2401,10,1.21,-35.3619581,149.1653169,624.95,4.85,189.4327,-0.367,0,1
132623,26:27.4,GPS,138585377,0,6,156405400,2401,10,1.21,-35.3619668,149.1653154,625.04,4.874,187.3663,-0.476,0,1
132982,26:27.6,GPS,138785297,0,6,156405600,2401,10,1.21,-35.3619755,149.1653141,625.14,4.918,185.1618,-0.595,0,1
133339,26:27.8,GPS,138985217,0,6,156405800,2401,10,1.21,-35.3619844,149.1653134,625.27,4.977,182.9062,-0.72,0,1
133518,26:27.9,GPS,139085177,1,1,0,0,0,-0.01,0,0,0,0,0,0,0,0
133697,26:28.0,GPS,139185137,0,6,156406000,2401,10,1.21,-35.3619934,149.1653131,625.43,5.047,180.7177,-0.844,0,1
134053,26:28.2,GPS,139385057,0,6,156406200,2401,10,1.21,-35.3620025,149.1653131,625.61,5.124,178.677,-0.9630001,0,1
134417,26:28.4,GPS,139584977,0,6,156406400,2401,10,1.21,-35.3620118,149.1653135,625.82,5.198,176.7952,-1.075,0,1
134773,26:28.6,GPS,139784897,0,6,156406600,2401,10,1.21,-35.3620212,149.1653143,626.04,5.269,175.0453,-1.178,0,1
135129,26:28.8,GPS,139984817,0,6,156406800,2401,10,1.21,-35.3620307,149.1653155,626.29,5.341,173.4018,-1.271,0,1
135487,26:29.0,GPS,140184737,0,6,156407000,2401,10,1.21,-35.3620402,149.165317,626.55,5.417,171.8679,-1.356,0,1
135842,26:29.2,GPS,140384657,0,6,156407200,2401,10,1.21,-35.3620499,149.1653189,626.83,5.496,170.4625,-1.432,0,1
136205,26:29.4,GPS,140585410,0,6,156407400,2401,10,1.21,-35.3620598,149.165321,627.13,5.575,169.2023,-1.5,0,1
136561,26:29.6,GPS,140785330,0,6,156407600,2401,10,1.21,-35.3620696,149.1653235,627.43,5.649,168.1044,-1.559,0,1
136917,26:29.8,GPS,140985250,0,6,156407800,2401,10,1.21,-35.3620796,149.1653261,627.75,5.714,167.1826,-1.608,0,1
137274,26:30.0,GPS,141185170,0,6,156408000,2401,10,1.21,-35.3620896,149.165329,628.07,5.768,166.4522,-1.647,0,1
137629,26:30.2,GPS,141385090,0,6,156408200,2401,10,1.21,-35.3620997,149.1653321,628.4,5.811,165.9217,-1.675,0,1
137993,26:30.4,GPS,141585010,0,6,156408400,2401,10,1.21,-35.3621098,149.1653352,628.74,5.843,165.5919,-1.692,0,1
138349,26:30.6,GPS,141784930,0,6,156408600,2401,10,1.21,-35.3621201,149.1653385,629.07,5.863,165.4265,-1.699,0,1
138705,26:30.8,GPS,141984850,0,6,156408800,2401,10,1.21,-35.3621303,149.1653417,629.42,5.875,165.3307,-1.701,0,1
139065,26:31.0,GPS,142184770,0,6,156409000,2401,10,1.21,-35.3621405,149.165345,629.76,5.882,165.2363,-1.699,0,1
139419,26:31.2,GPS,142384690,0,6,156409200,2401,10,1.21,-35.3621507,149.1653483,630.1,5.881,165.1391,-1.691,0,1
139785,26:31.4,GPS,142584610,0,6,156409400,2401,10,1.21,-35.362161,149.1653516,630.44,5.873,165.0589,-1.674,0,1
140141,26:31.6,GPS,142785363,0,6,156409600,2401,10,1.21,-35.3621711,149.165355,630.77,5.843,165.0194,-1.651,0,1
140497,26:31.8,GPS,142985283,0,6,156409800,2401,10,1.21,-35.3621811,149.1653583,631.1,5.772,165.032,-1.62,0,1
140705,26:31.9,GPS,143105235,1,1,0,0,0,-0.01,0,0,0,0,0,0,0,0
140856,26:32.0,GPS,143185203,0,6,156410000,2401,10,1.21,-35.362191,149.1653615,631.42,5.653,165.0744,-1.577,0,1
141210,26:32.2,GPS,143385123,0,6,156410200,2401,10,1.21,-35.3622007,149.1653647,631.73,5.491,165.0208,-1.523,0,1
141576,26:32.4,GPS,143585043,0,6,156410400,2401,10,1.21,-35.3622101,149.1653678,632.02,5.29,164.6661,-1.456,0,1
141931,26:32.6,GPS,143784963,0,6,156410600,2401,10,1.21,-35.3622191,149.1653709,632.31,5.054,163.8638,-1.378,0,1
142287,26:32.8,GPS,143984883,0,6,156410800,2401,10,1.21,-35.3622276,149.165374,632.58,4.787,162.5224,-1.287,0,1
142645,26:33.0,GPS,144184803,0,6,156411000,2401,10,1.21,-35.3622355,149.1653772,632.82,4.493,160.5212,-1.184,0,1
142999,26:33.2,GPS,144384723,0,6,156411200,2401,10,1.21,-35.3622428,149.1653806,633.05,4.179,157.6819,-1.068,0,1
143363,26:33.4,GPS,144584643,0,6,156411400,2401,10,1.21,-35.3622493,149.1653843,633.25,3.857,153.7367,-0.941,0,1
143719,26:33.6,GPS,144785396,0,6,156411600,2401,10,1.21,-35.3622551,149.1653882,633.43,3.555,148.334,-0.8050001,0,1
144076,26:33.8,GPS,144985316,0,6,156411800,2401,10,1.21,-35.3622602,149.1653926,633.57,3.315,141.1892,-0.669,0,1
144436,26:34.0,GPS,145185236,0,6,156412000,2401,10,1.21,-35.3622644,149.1653974,633.69,3.185,132.342,-0.539,0,1
144790,26:34.2,GPS,145385156,0,6,156412200,2401,10,1.21,-35.3622679,149.165403,633.79,3.197,122.3833,-0.423,0,1
145154,26:34.4,GPS,145585076,0,6,156412400,2401,10,1.21,-35.3622706,149.1654093,633.86,3.356,112.3674,-0.324,0,1
145509,26:34.6,GPS,145784996,0,6,156412600,2401,10,1.21,-35.3622725,149.1654166,633.92,3.632,103.4071,-0.242,0,1
145866,26:34.8,GPS,145984916,0,6,156412800,2401,10,1.21,-35.3622736,149.1654249,633.96,3.976,96.13377,-0.175,0,1
146224,26:35.0,GPS,146184836,0,6,156413000,2401,10,1.21,-35.362274,149.1654341,633.99,4.335,90.57972,-0.121,0,1
146578,26:35.2,GPS,146384756,0,6,156413200,2401,10,1.21,-35.3622739,149.165444,634.01,4.676,86.45473,-0.07700001,0,1
146941,26:35.4,GPS,146584676,0,6,156413400,2401,10,1.21,-35.3622731,149.1654546,634.02,4.986,83.44496,-0.041,0,1
147297,26:35.6,GPS,146784596,0,6,156413600,2401,10,1.21,-35.3622718,149.1654658,634.03,5.263,81.30916,-0.013,0,1
147654,26:35.8,GPS,146985349,0,6,156413800,2401,10,1.21,-35.3622703,149.1654775,634.03,5.506,79.87318,0.004,0,1
147885,26:35.9,GPS,147125293,1,1,0,0,0,-0.01,0,0,0,0,0,0,0,0
148015,26:36.0,GPS,147185269,0,6,156414000,2401,10,1.21,-35.3622685,149.1654897,634.03,5.714,79.02,0.013,0,1
148370,26:36.2,GPS,147385189,0,6,156414200,2401,10,1.21,-35.3622664,149.1655022,634.02,5.888,78.64477,0.012,0,1
148733,26:36.4,GPS,147585109,0,6,156414400,2401,10,1.21,-35.3622643,149.1655151,634.02,6.03,78.57149,0.005,0,1
149090,26:36.6,GPS,147785029,0,6,156414600,2401,10,1.21,-35.3622621,149.1655282,634.02,6.136,78.59956,-0.002,0,1
149447,26:36.8,GPS,147984949,0,6,156414800,2401,10,1.21,-35.36226,149.1655415,634.02,6.205,78.63573,-0.009000001,0,1
149805,26:37.0,GPS,148184869,0,6,156415000,2401,10,1.21,-35.3622577,149.165555,634.02,6.241,78.67193,-0.015,0,1
150159,26:37.2,GPS,148384789,0,6,156415200,2401,10,1.21,-35.3622556,149.1655685,634.03,6.249,78.71479,-0.018,0,1
150522,26:37.4,GPS,148584709,0,6,156415400,2401,10,1.21,-35.3622534,149.165582,634.03,6.246,78.77027,-0.019,0,1
150879,26:37.6,GPS,148784629,0,6,156415600,2401,10,1.21,-35.3622512,149.1655955,634.04,6.23,78.8516,-0.02,0,1
151236,26:37.8,GPS,148985382,0,6,156415800,2401,10,1.21,-35.362249,149.165609,634.04,6.192,79.00493,-0.02,0,1
151593,26:38.0,GPS,149185302,0,6,156416000,2401,10,1.21,-35.3622469,149.1656223,634.04,6.131001,79.32819,-0.019,0,1
151948,26:38.2,GPS,149385222,0,6,156416200,2401,10,1.21,-35.362245,149.1656355,634.05,6.057,79.91062,-0.018,0,1
152311,26:38.4,GPS,149585142,0,6,156416400,2401,10,1.21,-35.3622431,149.1656486,634.05,5.974,80.78524,-0.017,0,1
152667,26:38.6,GPS,149785062,0,6,156416600,2401,10,1.21,-35.3622415,149.1656615,634.05,5.881,81.9548,-0.016,0,1
153023,26:38.8,GPS,149984982,0,6,156416800,2401,10,1.21,-35.3622402,149.1656741,634.06,5.779,83.42087,-0.015,0,1
153382,26:39.0,GPS,150184902,0,6,156417000,2401,10,1.21,-35.3622392,149.1656867,634.06,5.669,85.19776,-0.014,0,1
153737,26:39.2,GPS,150384822,0,6,156417200,2401,10,1.21,-35.3622385,149.165699,634.06,5.555,87.31158,-0.013,0,1
154099,26:39.4,GPS,150584742,0,6,156417400,2401,10,1.21,-35.3622383,149.1657111,634.07,5.44,89.7797,-0.011,0,1
154456,26:39.6,GPS,150784662,0,6,156417600,2401,10,1.21,-35.3622385,149.165723,634.07,5.329,92.62524,-0.009000001,0,1
154812,26:39.8,GPS,150984582,0,6,156417800,2401,10,1.21,-35.3622391,149.1657346,634.07,5.228,95.86786,-0.007,0,1
155073,26:40.0,GPS,151145351,1,1,0,0,0,-0.01,0,0,0,0,0,0,0,0
155174,26:40.0,GPS,151185335,0,6,156418000,2401,10,1.21,-35.3622403,149.165746,634.07,5.153,99.43153,-0.005,0,1
155529,26:40.2,GPS,151385255,0,6,156418200,2401,10,1.21,-35.3622421,149.1657571,634.07,5.114,103.0975,-0.005,0,1
155892,26:40.4,GPS,151585175,0,6,156418400,2401,10,1.21,-35.3622445,149.1657679,634.07,5.11,106.5879,-0.005,0,1
156248,26:40.6,GPS,151785095,0,6,156418600,2401,10,1.21,-35.3622473,149.1657786,634.08,5.127,109.719,-0.007,0,1
156604,26:40.8,GPS,151985015,0,6,156418800,2401,10,1.21,-35.3622507,149.1657892,634.08,5.152,112.4507,-0.009000001,0,1
156962,26:41.0,GPS,152184935,0,6,156419000,2401,10,1.21,-35.3622544,149.1657996,634.08,5.182,114.8061,-0.009000001,0,1
157320,26:41.2,GPS,152384855,0,6,156419200,2401,10,1.21,-35.3622584,149.1658099,634.08,5.216,116.8115,-0.008,0,1
157683,26:41.4,GPS,152584775,0,6,156419400,2401,10,1.21,-35.3622628,149.1658201,634.08,5.254,118.4933,-0.008,0,1
158040,26:41.6,GPS,152784695,0,6,156419600,2401,10,1.21,-35.3622675,149.1658303,634.08,5.294,119.8666,-0.007,0,1
158396,26:41.8,GPS,152984615,0,6,156419800,2401,10,1.21,-35.3622723,149.1658404,634.09,5.333,120.9421,-0.006,0,1
158753,26:42.0,GPS,153185368,0,6,156420000,2401,10,1.21,-35.3622773,149.1658504,634.09,5.37,121.7325,-0.005,0,1
159108,26:42.2,GPS,153385288,0,6,156420200,2401,10,1.21,-35.3622824,149.1658605,634.09,5.401,122.2455,-0.005,0,1
159474,26:42.4,GPS,153585208,0,6,156420400,2401,10,1.21,-35.3622876,149.1658706,634.09,5.425,122.4984,-0.005,0,1
159829,26:42.6,GPS,153785128,0,6,156420600,2401,10,1.21,-35.3622929,149.1658807,634.09,5.445,122.575,-0.004,0,1
160186,26:42.8,GPS,153985048,0,6,156420800,2401,10,1.21,-35.3622981,149.1658908,634.09,5.462,122.6462,-0.001,0,1
160544,26:43.0,GPS,154184968,0,6,156421000,2401,10,1.21,-35.3623034,149.1659009,634.09,5.473,122.9041,0,0,1
160899,26:43.2,GPS,154384888,0,6,156421200,2401,10,1.21,-35.3623089,149.165911,634.09,5.471,123.4644,0.001,0,1
161261,26:43.4,GPS,154584808,0,6,156421400,2401,10,1.21,-35.3623143,149.165921,634.09,5.456,124.347,0.002,0,1
161617,26:43.6,GPS,154784728,0,6,156421600,2401,10,1.21,-35.3623199,149.1659308,634.09,5.429,125.5347,0.001,0,1
161974,26:43.8,GPS,154984648,0,6,156421800,2401,10,1.21,-35.3623257,149.1659404,634.09,5.39,127.0142,0.001,0,1
162305,26:44.0,GPS,155165409,1,1,0,0,0,-0.01,0,0,0,0,0,0,0,0
162333,26:44.0,GPS,155185401,0,6,156422000,2401,10,1.21,-35.3623316,149.1659498,634.09,5.344,128.7901,0,0,1
162689,26:44.2,GPS,155385321,0,6,156422200,2401,10,1.21,-35.3623377,149.1659588,634.09,5.291,130.8695,0,0,1
163052,26:44.4,GPS,155585241,0,6,156422400,2401,10,1.21,-35.3623441,149.1659674,634.09,5.235,133.2633,0,0,1
163407,26:44.6,GPS,155785161,0,6,156422600,2401,10,1.21,-35.3623506,149.1659756,634.09,5.181,135.9885,0,0,1
163764,26:44.8,GPS,155985081,0,6,156422800,2401,10,1.21,-35.3623575,149.1659833,634.09,5.135,139.0593,0,0,1
164125,26:45.0,GPS,156185001,0,6,156423000,2401,10,1.21,-35.3623646,149.1659904,634.09,5.097,142.4498,-0.001,0,1
164480,26:45.2,GPS,156384921,0,6,156423200,2401,10,1.21,-35.3623719,149.1659969,634.09,5.058,146.0338,-0.004,0,1
164842,26:45.4,GPS,156584841,0,6,156423400,2401,10,1.21,-35.3623796,149.1660028,634.09,5.016,149.5807,-0.007,0,1
165198,26:45.6,GPS,156784761,0,6,156423600,2401,10,1.21,-35.3623874,149.1660081,634.09,4.98,152.8472,-0.009000001,0,1
165555,26:45.8,GPS,156984681,0,6,156423800,2401,10,1.21,-35.3623955,149.1660129,634.09,4.953,155.6839,-0.009000001,0,1
165912,26:46.0,GPS,157184601,0,6,156424000,2401,10,1.21,-35.3624037,149.1660171,634.1,4.934,158.0762,-0.008,0,1
166270,26:46.2,GPS,157385354,0,6,156424200,2401,10,1.21,-35.362412,149.166021,634.1,4.919,160.0776,-0.006,0,1
166633,26:46.4,GPS,157585274,0,6,156424400,2401,10,1.21,-35.3624203,149.1660246,634.1,4.908,161.7322,-0.004,0,1
166988,26:46.6,GPS,157785194,0,6,156424600,2401,10,1.21,-35.3624287,149.1660278,634.1,4.899,163.0805,-0.002,0,1
167345,26:46.8,GPS,157985114,0,6,156424800,2401,10,1.21,-35.3624372,149.1660308,634.1,4.893,164.1554,-0.001,0,1
167703,26:47.0,GPS,158185034,0,6,156425000,2401,10,1.21,-35.3624456,149.1660336,634.1,4.89,164.9794,0,0,1
168057,26:47.2,GPS,158384954,0,6,156425200,2401,10,1.21,-35.3624541,149.1660364,634.1,4.889,165.5693,0,0,1
168420,26:47.4,GPS,158584874,0,6,156425400,2401,10,1.21,-35.3624626,149.166039,634.1,4.889,165.9401,-0.001,0,1
168776,26:47.6,GPS,158784794,0,6,156425600,2401,10,1.21,-35.3624712,149.1660417,634.1,4.891,166.1343,-0.002,0,1
169133,26:47.8,GPS,158984714,0,6,156425800,2401,10,1.21,-35.3624797,149.1660443,634.1,4.893,166.2462,-0.002,0,1
169490,26:48.0,GPS,159184634,0,6,156426000,2401,10,1.21,-35.3624882,149.1660468,634.1,4.894,166.3615,-0.002,0,1
169492,26:48.0,GPS,159184634,1,1,0,0,0,-0.01,0,0,0,0,0,0,0,0
169846,26:48.2,GPS,159385387,0,6,156426200,2401,10,1.21,-35.3624968,149.1660493,634.1,4.896,166.5,-0.002,0,1
170210,26:48.4,GPS,159585307,0,6,156426400,2401,10,1.21,-35.3625053,149.1660518,634.1,4.897,166.6464,-0.002,0,1
170565,26:48.6,GPS,159785227,0,6,156426600,2401,10,1.21,-35.3625139,149.1660543,634.11,4.899,166.7928,-0.002,0,1
170922,26:48.8,GPS,159985147,0,6,156426800,2401,10,1.21,-35.3625225,149.1660567,634.11,4.901,166.9401,-0.002,0,1
171280,26:49.0,GPS,160185067,0,6,156427000,2401,10,1.21,-35.3625311,149.1660592,634.11,4.902,167.0828,-0.001,0,1
171634,26:49.2,GPS,160384987,0,6,156427200,2401,10,1.21,-35.3625397,149.1660615,634.11,4.903,167.2157,0,0,1
171997,26:49.4,GPS,160584907,0,6,156427400,2401,10,1.21,-35.3625483,149.166064,634.11,4.904,167.3452,0,0,1
172353,26:49.6,GPS,160784827,0,6,156427600,2401,10,1.21,-35.3625569,149.1660663,634.11,4.904,167.4882,0,0,1
172710,26:49.8,GPS,160984747,0,6,156427800,2401,10,1.21,-35.3625655,149.1660686,634.11,4.904,167.6563,0,0,1
173067,26:50.0,GPS,161184667,0,6,156428000,2401,10,1.21,-35.362574,149.166071,634.11,4.903,167.8513,0,0,1
173422,26:50.2,GPS,161384587,0,6,156428200,2401,10,1.21,-35.3625827,149.1660732,634.11,4.902,168.0765,0,0,1
173784,26:50.4,GPS,161585340,0,6,156428400,2401,10,1.21,-35.3625913,149.1660754,634.11,4.899,168.3392,0,0,1
174140,26:50.6,GPS,161785260,0,6,156428600,2401,10,1.21,-35.3626,149.1660776,634.11,4.896,168.6468,0,0,1
174497,26:50.8,GPS,161985180,0,6,156428800,2401,10,1.21,-35.3626086,149.1660796,634.11,4.893,169.0023,0,0,1
174855,26:51.0,GPS,162185100,0,6,156429000,2401,10,1.21,-35.3626171,149.1660817,634.11,4.889,169.4083,0.001,0,1
175211,26:51.2,GPS,162385020,0,6,156429200,2401,10,1.21,-35.3626258,149.1660836,634.11,4.884,169.8739,0.001,0,1
175574,26:51.4,GPS,162584940,0,6,156429400,2401,10,1.21,-35.3626345,149.1660855,634.11,4.878,170.4032,0.001,0,1
175931,26:51.6,GPS,162784860,0,6,156429600,2401,10,1.21,-35.3626431,149.1660872,634.11,4.871,170.9878,0.001,0,1
176290,26:51.8,GPS,162984780,0,6,156429800,2401,10,1.21,-35.3626517,149.1660888,634.11,4.863,171.6151,0.001,0,1
176648,26:52.0,GPS,163184700,0,6,156430000,2401,10,1.21,-35.3626604,149.1660903,634.1,4.857,172.2601,0.001,0,1
176676,26:52.0,GPS,163204692,1,1,0,0,0,-0.01,0,0,0,0,0,0,0,0
177005,26:52.2,GPS,163384620,0,6,156430200,2401,10,1.21,-35.3626691,149.1660917,634.1,4.85,172.8923,0.001,0,1
177367,26:52.4,GPS,163585373,0,6,156430400,2401,10,1.21,-35.3626777,149.166093,634.1,4.844,173.4874,0.001,0,1
177723,26:52.6,GPS,163785293,0,6,156430600,2401,10,1.21,-35.3626864,149.1660941,634.1,4.838,174.0413,0.001,0,1
178079,26:52.8,GPS,163985213,0,6,156430800,2401,10,1.21,-35.362695,149.1660952,634.1,4.832,174.5641,0,0,1
178438,26:53.0,GPS,164185133,0,6,156431000,2401,10,1.21,-35.3627037,149.1660961,634.1,4.827,175.0514,0,0,1
178792,26:53.2,GPS,164385053,0,6,156431200,2401,10,1.21,-35.3627123,149.166097,634.1,4.823,175.492,0,0,1
179154,26:53.4,GPS,164584973,0,6,156431400,2401,10,1.21,-35.3627209,149.1660978,634.1,4.82,175.8801,0,0,1
179511,26:53.6,GPS,164784893,0,6,156431600,2401,10,1.21,-35.3627295,149.1660985,634.1,4.817,176.2168,0,0,1
179867,26:53.8,GPS,164984813,0,6,156431800,2401,10,1.21,-35.3627382,149.1660992,634.1,4.816,176.5084,0,0,1
180225,26:54.0,GPS,165184733,0,6,156432000,2401,10,1.21,-35.3627469,149.1660999,634.1,4.814,176.7577,0,0,1
180619,26:54.2,GPS,165384653,0,6,156432200,2401,10,1.21,-35.3627555,149.1661004,634.1,4.813,176.9665,0,0,1
180981,26:54.4,GPS,165585406,0,6,156432400,2401,10,1.21,-35.3627641,149.1661009,634.1,4.812,177.1406,0,0,1
181337,26:54.6,GPS,165785326,0,6,156432600,2401,10,1.21,-35.3627728,149.1661015,634.1,4.811,177.2753,0,0,1
181693,26:54.8,GPS,165985246,0,6,156432800,2401,10,1.21,-35.3627813,149.166102,634.1,4.811,177.3579,0,0,1
182052,26:55.0,GPS,166185166,0,6,156433000,2401,10,1.21,-35.36279,149.1661025,634.1,4.811,177.3933,0,0,1
182407,26:55.2,GPS,166385086,0,6,156433200,2401,10,1.21,-35.3627987,149.1661029,634.1,4.811,177.3941,0,0,1
182769,26:55.4,GPS,166585006,0,6,156433400,2401,10,1.21,-35.3628073,149.1661034,634.1,4.811,177.3774,0,0,1
183237,26:55.6,GPS,166784926,0,6,156433600,2401,10,1.21,-35.3628159,149.1661039,634.11,4.81,177.3659,0,0,1
183593,26:55.8,GPS,166984846,0,6,156433800,2401,10,1.21,-35.3628245,149.1661044,634.11,4.768,177.3827,-0.009000001,0,1
183952,26:56.0,GPS,167184766,0,6,156434000,2401,10,1.21,-35.3628329,149.1661049,634.11,4.606,177.4573,-0.021,0,1
184006,26:56.0,GPS,167224750,1,1,0,0,0,-0.01,0,0,0,0,0,0,0,0
184309,26:56.2,GPS,167384686,0,6,156434200,2401,10,1.21,-35.362841,149.1661052,634.11,4.323,177.5979,-0.023,0,1
184672,26:56.4,GPS,167584606,0,6,156434400,2401,10,1.21,-35.3628484,149.1661057,634.12,3.97,177.7835,-0.015,0,1
185031,26:56.6,GPS,167785359,0,6,156434600,2401,10,1.21,-35.3628552,149.1661059,634.12,3.571,177.9902,-0.004,0,1
185387,26:56.8,GPS,167985279,0,6,156434800,2401,10,1.21,-35.3628613,149.1661062,634.12,3.16,178.1909,0.008,0,1
185746,26:57.0,GPS,168185199,0,6,156435000,2401,10,1.21,-35.3628665,149.1661064,634.12,2.787,178.3326,0.017,0,1
186102,26:57.2,GPS,168385119,0,6,156435200,2401,10,1.21,-35.3628713,149.1661065,634.11,2.486,178.3116,0.021,0,1
186464,26:57.4,GPS,168585039,0,6,156435400,2401,10,1.21,-35.3628755,149.1661068,634.11,2.276,178.0728,0.02,0,1
186821,26:57.6,GPS,168784959,0,6,156435600,2401,10,1.21,-35.3628795,149.1661069,634.1,2.167,177.6961,0.018,0,1
187177,26:57.8,GPS,168984879,0,6,156435800,2401,10,1.21,-35.3628834,149.1661071,634.1,2.163,177.3048,0.015,0,1
187536,26:58.0,GPS,169184799,0,6,156436000,2401,10,1.21,-35.3628874,149.1661073,634.1,2.261,176.9796,0.013,0,1
187890,26:58.2,GPS,169384719,0,6,156436200,2401,10,1.21,-35.3628916,149.1661076,634.09,2.445,176.7431,0.01,0,1
188252,26:58.4,GPS,169584639,0,6,156436400,2401,10,1.21,-35.3628962,149.166108,634.09,2.685,176.5855,0.007,0,1
188609,26:58.6,GPS,169785392,0,6,156436600,2401,10,1.21,-35.3629012,149.1661083,634.09,2.947,176.491,0.003,0,1
188964,26:58.8,GPS,169985312,0,6,156436800,2401,10,1.21,-35.3629068,149.1661088,634.09,3.207,176.444,0,0,1
189323,26:59.0,GPS,170185232,0,6,156437000,2401,10,1.21,-35.3629127,149.1661092,634.09,3.444,176.4372,-0.002,0,1
189679,26:59.2,GPS,170385152,0,6,156437200,2401,10,1.21,-35.3629191,149.1661097,634.09,3.65,176.4669,-0.004,0,1
190040,26:59.4,GPS,170585072,0,6,156437400,2401,10,1.21,-35.3629258,149.1661102,634.09,3.827,176.5222,-0.004,0,1
190398,26:59.6,GPS,170784992,0,6,156437600,2401,10,1.21,-35.3629328,149.1661107,634.1,3.978,176.5992,-0.003,0,1
