,Timestamp,,TimeUS,I,GyrX,GyrY,GyrZ,AccX,AccY,AccZ,EG,EA,T,GH,AH,GHz,AHz
1933,25:14.5,IMU,65645398,0,0.000902184,0.000975665,0.000909117,-0.000436771,-0.001627776,-9.817502,0,0,28.82777,1,1,1000,1000
1934,25:14.5,IMU,65645398,1,0.001198883,0.001035904,0.001015485,-0.000465833,-0.000452171,-9.818029,0,0,28.82772,1,1,760,800
1984,25:14.5,IMU,65685382,0,0.000904584,0.000928657,0.000890461,-0.001618373,-0.000186698,-9.818495,0,0,28.82993,1,1,1000,1000
1985,25:14.5,IMU,65685382,1,0.000606843,0.000779647,0.000975187,-0.002940248,-0.002220477,-9.816321,0,0,28.82987,1,1,760,800
2037,25:14.5,IMU,65725366,0,0.000971583,0.000861597,0.000970166,-0.001149017,-0.001069156,-9.817202,0,0,28.83208,1,1,1000,1000
2038,25:14.5,IMU,65725366,1,0.000935355,0.000845488,0.00114542,-0.001560554,0.00167848,-9.817427,0,0,28.83203,1,1,760,800
2129,25:14.6,IMU,65765350,0,0.000925967,0.000944257,0.000899552,-0.001437568,-0.000952442,-9.817449,0,0,28.83424,1,1,1000,1000
2130,25:14.6,IMU,65765350,1,0.000958318,0.000832891,0.00121185,-0.002562559,-0.000996522,-9.817451,0,0,28.83418,1,1,760,800
2184,25:14.6,IMU,65805334,0,0.0008955,0.000980963,0.000883906,-0.000910965,-3.30E-05,-9.81712,0,0,28.83639,1,1,1000,1000
2185,25:14.6,IMU,65805334,1,0.001006317,0.001106041,0.000947671,-8.00E-05,-0.002961921,-9.816935,0,0,28.83634,1,1,760,800
2279,25:14.7,IMU,65845318,0,0.000876665,0.000978286,0.000952609,-0.000705211,-0.000837516,-9.816685,0,0,28.83855,1,1,1000,1000
2280,25:14.7,IMU,65845318,1,0.000902491,0.001065464,0.000904927,-0.000165544,-0.002108586,-9.816672,0,0,28.83849,1,1,760,800
2330,25:14.7,IMU,65885302,0,0.000873022,0.000827752,0.000865102,-0.001089746,-0.000308899,-9.817474,0,0,28.8407,1,1,1000,1000
2331,25:14.7,IMU,65885302,1,0.001008012,0.000883261,0.001186297,-0.002622883,-0.000439161,-9.81883,0,0,28.84065,1,1,760,800
2383,25:14.7,IMU,65925286,0,0.000963064,0.000905737,0.00092607,-0.000537458,-0.000990348,-9.817886,0,0,28.84286,1,1,1000,1000
2384,25:14.7,IMU,65925286,1,0.00098161,0.000913176,0.000736879,-0.000787638,0.000198284,-9.815667,0,0,28.8428,1,1,760,800
2478,25:14.8,IMU,65965270,0,0.000911941,0.000932544,0.000914381,-0.000341218,-0.001482163,-9.817921,0,0,28.84501,1,1,1000,1000
2479,25:14.8,IMU,65965270,1,0.000977512,0.000669053,0.001126448,-0.000882849,-0.002746576,-9.817742,0,0,28.84496,1,1,760,800
2533,25:14.8,IMU,66005254,0,0.000941995,0.000912577,0.000844596,-0.001003407,-0.001475006,-9.816901,0,0,28.84716,1,1,1000,1000
2534,25:14.8,IMU,66005254,1,0.000816186,0.001029946,0.000775052,0.000771193,0.001172542,-9.816557,0,0,28.84711,1,1,760,800
2630,25:14.9,IMU,66045238,0,0.000823371,0.000955193,0.000926626,-0.00165078,-0.000249336,-9.817495,0,0,28.84932,1,1,1000,1000
2631,25:14.9,IMU,66045238,1,0.00104323,0.000799902,0.000781385,-0.001968898,-0.002251589,-9.816801,0,0,28.84926,1,1,760,800
2681,25:14.9,IMU,66085222,0,0.000908404,0.000949732,0.000912432,-0.001278298,-0.002614901,-9.818682,0,0,28.85142,1,1,1000,1000
2682,25:14.9,IMU,66085222,1,0.000870503,0.000895036,0.000942226,0.001591114,-0.002316823,-9.818,0,0,28.85142,1,1,760,800
2734,25:14.9,IMU,66125206,0,0.000943338,0.000859227,0.000908264,-0.00044483,-0.000974012,-9.816919,0,0,28.85357,1,1,1000,1000
2735,25:14.9,IMU,66125206,1,0.000931011,0.000779888,0.001020729,-0.001730022,-0.001528524,-9.816723,0,0,28.85357,1,1,760,800
2831,25:15.0,IMU,66165190,0,0.00088483,0.000951348,0.000962599,-0.001028489,-0.001514926,-9.817533,0,0,28.85572,1,1,1000,1000
2832,25:15.0,IMU,66165190,1,0.00098886,0.000602185,0.000744077,-0.00159559,0.00026676,-9.821097,0,0,28.85572,1,1,760,800
2886,25:15.0,IMU,66205174,0,0.000919382,0.000961355,0.000942773,-0.001257391,-0.000762869,-9.818627,0,0,28.85788,1,1,1000,1000
2887,25:15.0,IMU,66205174,1,0.000869368,0.00085746,0.000974924,-0.001919845,0.001234117,-9.815004,0,0,28.85788,1,1,760,800
2980,25:15.1,IMU,66245158,0,0.000925263,0.000920739,0.000996372,-0.000421381,-0.001326644,-9.817919,0,0,28.86003,1,1,1000,1000
2981,25:15.1,IMU,66245158,1,0.001008912,0.000843634,0.000965459,5.206492E-05,-9.07E-05,-9.816121,0,0,28.86003,1,1,760,800
3030,25:15.1,IMU,66285142,0,0.000906544,0.000916059,0.000971443,-0.001373877,-0.001206823,-9.817187,0,0,28.86218,1,1,1000,1000
3031,25:15.1,IMU,66285142,1,0.000954761,0.000905906,0.000732898,6.988859E-05,-0.00256401,-9.817173,0,0,28.86218,1,1,760,800
3083,25:15.1,IMU,66325126,0,0.000904956,0.000927027,0.000945421,-0.001085606,-0.000479439,-9.817383,0,0,28.86433,1,1,1000,1000
3084,25:15.1,IMU,66325126,1,0.001066752,0.000955448,0.000935439,-0.001629574,0.000283225,-9.818277,0,0,28.86433,1,1,760,800
3177,25:15.2,IMU,66365110,0,0.000956297,0.000933141,0.000876877,-0.000803149,-0.001727389,-9.817407,0,0,28.86648,1,1,1000,1000
3178,25:15.2,IMU,66365110,1,0.000993269,0.000984338,0.000930928,-0.00128921,-0.000372466,-9.81913,0,0,28.86648,1,1,760,800
3231,25:15.2,IMU,66405094,0,0.000993221,0.000924747,0.000939896,-0.000792131,-0.000937562,-9.817413,0,0,28.86863,1,1,1000,1000
3232,25:15.2,IMU,66405094,1,0.001196026,0.000813952,0.00090833,-0.001162469,-0.001389479,-9.816682,0,0,28.86863,1,1,760,800
3327,25:15.3,IMU,66445078,0,0.000912949,0.00090468,0.0009508,-0.00042122,-0.002078401,-9.817936,0,0,28.87078,1,1,1000,1000
3328,25:15.3,IMU,66445078,1,0.001016438,0.001030814,0.000799738,-0.001901997,-0.001347913,-9.815113,0,0,28.87078,1,1,760,800
3380,25:15.3,IMU,66485062,0,0.000933598,0.000905182,0.000893694,-0.001897303,-0.000886485,-9.817626,0,0,28.87299,1,1,1000,1000
3381,25:15.3,IMU,66485062,1,0.00085157,0.00073062,0.000799758,-0.001832595,-0.002482201,-9.816237,0,0,28.87299,1,1,760,800
3433,25:15.3,IMU,66525046,0,0.000928858,0.000874157,0.000939286,-0.001218908,-0.001526948,-9.817975,0,0,28.87514,1,1,1000,1000
3434,25:15.3,IMU,66525046,1,0.00095953,0.000981643,0.000943996,-0.001771435,0.000778321,-9.817906,0,0,28.87514,1,1,760,800
3530,25:15.4,IMU,66565030,0,0.000968535,0.000983069,0.000924876,-0.000401201,-0.00086539,-9.8173,0,0,28.87729,1,1,1000,1000
3531,25:15.4,IMU,66565030,1,0.000936657,0.000569621,0.000852024,0.000658428,-0.001693112,-9.819484,0,0,28.87729,1,1,760,800
3587,25:15.4,IMU,66605014,0,0.000960686,0.00088944,0.000900321,-0.00103683,-0.000988251,-9.817203,0,0,28.87944,1,1,1000,1000
3588,25:15.4,IMU,66605014,1,0.000885491,0.000821637,0.000897144,-0.002355246,-1.53E-05,-9.816877,0,0,28.87944,1,1,760,800
3681,25:15.5,IMU,66644998,0,0.001002696,0.000973621,0.000961893,-0.000846708,-0.0007185,-9.818369,0,0,28.88153,1,1,1000,1000
3682,25:15.5,IMU,66644998,1,0.001101366,0.001277267,0.001062787,-0.00130732,-0.001125615,-9.817959,0,0,28.88153,1,1,760,800
3732,25:15.5,IMU,66684982,0,0.000964063,0.000996804,0.00091126,-0.001223831,-0.001027661,-9.817644,0,0,28.88368,1,1,1000,1000
3733,25:15.5,IMU,66684982,1,0.000820039,0.000899729,0.000911324,-0.001576444,-0.000808652,-9.818026,0,0,28.88368,1,1,760,800
3785,25:15.5,IMU,66724966,0,0.000840045,0.000940916,0.000956068,-0.001382723,-0.001020489,-9.81848,0,0,28.88583,1,1,1000,1000
3786,25:15.5,IMU,66724966,1,0.001144531,0.000879913,0.000909504,-0.001427034,-0.001210399,-9.818791,0,0,28.88583,1,1,760,800
3883,25:15.6,IMU,66764950,0,0.000909549,0.00091253,0.00099718,-0.002051013,-0.001649236,-9.817276,0,0,28.88798,1,1,1000,1000
3884,25:15.6,IMU,66764950,1,0.001142056,0.000655557,0.00095668,-0.000777399,0.000570588,-9.819284,0,0,28.88798,1,1,760,800
3938,25:15.6,IMU,66804934,0,0.000907076,0.000989208,0.000886212,-0.000808999,-0.000636414,-9.81708,0,0,28.89013,1,1,1000,1000
3939,25:15.6,IMU,66804934,1,0.000793807,0.001058744,0.000843732,-0.002624937,0.000161204,-9.817481,0,0,28.89013,1,1,760,800
4033,25:15.7,IMU,66844918,0,0.00092348,0.000937494,0.000964716,-0.000475855,-0.001521689,-9.816664,0,0,28.89227,1,1,1000,1000
4034,25:15.7,IMU,66844918,1,0.001046003,0.000911307,0.000792449,-0.001394382,-0.004002519,-9.81789,0,0,28.89227,1,1,760,800
4085,25:15.7,IMU,66884902,0,0.000955574,0.000909599,0.000900814,-0.000482407,-0.000423519,-9.816527,0,0,28.89442,1,1,1000,1000
4086,25:15.7,IMU,66884902,1,0.000939917,0.000891895,0.000677817,-0.002392107,-0.001822978,-9.816867,0,0,28.89442,1,1,760,800
4138,25:15.7,IMU,66924886,0,0.00100846,0.001011667,0.000980552,-0.000129063,-0.001359074,-9.81664,0,0,28.89657,1,1,1000,1000
4139,25:15.7,IMU,66924886,1,0.000826531,0.000820226,0.001151783,-0.000538537,-0.001022949,-9.81735,0,0,28.89657,1,1,760,800
4233,25:15.8,IMU,66964870,0,0.000946222,0.001004212,0.000929572,-0.000731153,-0.000691444,-9.816357,0,0,28.89872,1,1,1000,1000
4234,25:15.8,IMU,66964870,1,0.001066302,0.000812254,0.000824122,-0.001818585,-0.002603948,-9.818009,0,0,28.89872,1,1,760,800
4288,25:15.8,IMU,67004854,0,0.000979883,0.000950093,0.001035983,-0.000916744,-0.000989612,-9.817087,0,0,28.90086,1,1,1000,1000
4289,25:15.8,IMU,67004854,1,0.00116887,0.000773848,0.001021179,0.001006297,-0.0019942,-9.816645,0,0,28.90086,1,1,760,800
4383,25:15.9,IMU,67044838,0,0.000915393,0.000917921,0.000945874,-0.001182605,-0.000222079,-9.81918,0,0,28.90301,1,1,1000,1000
4384,25:15.9,IMU,67044838,1,0.000951506,0.000940398,0.000842611,-0.000187387,0.000670428,-9.814248,0,0,28.90301,1,1,760,800
4436,25:15.9,IMU,67084822,0,0.000921976,0.00089016,0.000977058,-0.000225728,-0.000322425,-9.816875,0,0,28.90516,1,1,1000,1000
4437,25:15.9,IMU,67084822,1,0.00101118,0.000871587,0.000984695,-0.001127687,0.000633187,-9.815823,0,0,28.90516,1,1,760,800
4489,25:15.9,IMU,67124806,0,0.000968254,0.000935141,0.001002396,-5.17E-05,-0.000854204,-9.818775,0,0,28.9073,1,1,1000,1000
4490,25:15.9,IMU,67124806,1,0.000858633,0.000665927,0.000837248,-0.001310992,-0.002069658,-9.817595,0,0,28.9073,1,1,760,800
4584,25:16.0,IMU,67164790,0,0.000866497,0.000916557,0.000832464,-0.000545989,-0.000956885,-9.817266,0,0,28.90945,1,1,1000,1000
4585,25:16.0,IMU,67164790,1,0.001045121,0.000755095,0.001073902,-0.001823051,-0.002374992,-9.817481,0,0,28.90945,1,1,760,800
4639,25:16.0,IMU,67204774,0,0.000870067,0.000999607,0.000880132,-0.000587055,-0.000520355,-9.816792,0,0,28.91159,1,1,1000,1000
4640,25:16.0,IMU,67204774,1,0.000972729,0.000871683,0.000882165,-0.001301657,-0.001633552,-9.81846,0,0,28.91159,1,1,760,800
4733,25:16.1,IMU,67244758,0,0.000881513,0.000979096,0.000913122,-0.000301357,-0.000948454,-9.817811,0,0,28.91374,1,1,1000,1000
4734,25:16.1,IMU,67244758,1,0.001117408,0.000981044,0.001107394,-0.00191577,0.001639638,-9.815521,0,0,28.91374,1,1,760,800
4785,25:16.1,IMU,67284742,0,0.00097706,0.000908139,0.000946707,-0.000423702,-0.00094091,-9.817225,0,0,28.91588,1,1,1000,1000
4786,25:16.1,IMU,67284742,1,0.001031509,0.001076427,0.000757876,-0.001668079,-0.000296444,-9.819487,0,0,28.91588,1,1,760,800
4838,25:16.1,IMU,67324726,0,0.000968133,0.000951981,0.00090591,-0.00057151,-0.000227361,-9.816891,0,0,28.91803,1,1,1000,1000
4839,25:16.1,IMU,67324726,1,0.001133643,0.00113881,0.000861151,-0.003293726,0.000118774,-9.816419,0,0,28.91803,1,1,760,800
4933,25:16.2,IMU,67364710,0,0.000973344,0.000989751,0.000904824,-0.000802691,-0.000780989,-9.817361,0,0,28.92017,1,1,1000,1000
4934,25:16.2,IMU,67364710,1,0.000932285,0.000968389,0.00088417,-0.000268247,-0.000424167,-9.818254,0,0,28.92017,1,1,760,800
4988,25:16.2,IMU,67404694,0,0.000975252,0.000963286,0.000970177,-0.001406818,2.698663E-05,-9.81708,0,0,28.92232,1,1,1000,1000
4989,25:16.2,IMU,67404694,1,0.001095345,0.000874114,0.000642463,0.000948619,-0.001981949,-9.815954,0,0,28.92232,1,1,760,800
5084,25:16.3,IMU,67444678,0,0.00089938,0.000923718,0.000913586,-0.000907683,-9.47E-05,-9.816639,0,0,28.92446,1,1,1000,1000
5085,25:16.3,IMU,67444678,1,0.000738995,0.000831928,0.001033945,0.001041006,-0.001033539,-9.818931,0,0,28.92446,1,1,760,800
5138,25:16.3,IMU,67484662,0,0.000909813,0.000873182,0.000900255,3.199348E-05,-0.000638509,-9.817449,0,0,28.9266,1,1,1000,1000
5139,25:16.3,IMU,67484662,1,0.000808679,0.001253003,0.00103496,-0.001600364,-0.000487315,-9.819131,0,0,28.9266,1,1,760,800
5191,25:16.3,IMU,67524646,0,0.000943727,0.001005754,0.000919167,-0.000870132,-0.00131929,-9.818079,0,0,28.92875,1,1,1000,1000
5192,25:16.3,IMU,67524646,1,0.000768448,0.001173863,0.000854243,0.000175388,-0.002208529,-9.818184,0,0,28.92875,1,1,760,800
5288,25:16.4,IMU,67564630,0,0.000924006,0.000908317,0.000977035,-0.000488664,0.000472249,-9.816676,0,0,28.93089,1,1,1000,1000
5289,25:16.4,IMU,67564630,1,0.000966441,0.001028678,0.001141086,-0.003278174,-0.000146918,-9.817943,0,0,28.93089,1,1,760,800
5345,25:16.4,IMU,67604614,0,0.000972841,0.000923908,0.000867921,-0.000747104,-8.03E-05,-9.817454,0,0,28.93303,1,1,1000,1000
5346,25:16.4,IMU,67604614,1,0.001058535,0.000830747,0.000947301,0.000406259,0.000208943,-9.817816,0,0,28.93303,1,1,760,800
5440,25:16.5,IMU,67644598,0,0.000912861,0.000960401,0.001024723,-0.000481132,-0.001599703,-9.817478,0,0,28.93517,1,1,1000,1000
5441,25:16.5,IMU,67644598,1,0.000927347,0.001045298,0.000733011,-0.001255749,-0.000177693,-9.819478,0,0,28.93517,1,1,760,800
5492,25:16.5,IMU,67684582,0,0.000953698,0.000908405,0.000964934,-0.001064751,-0.00078881,-9.817801,0,0,28.93731,1,1,1000,1000
5493,25:16.5,IMU,67684582,1,0.001097526,0.000755704,0.001039271,-0.002804646,0.000768961,-9.816849,0,0,28.93731,1,1,760,800
5544,25:16.5,IMU,67725399,0,0.000890024,0.00094035,0.000959675,-0.000928317,-0.000920936,-9.816586,0,0,28.93951,1,1,1000,1000
5545,25:16.5,IMU,67725399,1,0.001051106,0.000718461,0.001178358,-0.000742264,-0.002485354,-9.816031,0,0,28.93946,1,1,760,800
5640,25:16.6,IMU,67765383,0,0.000974247,0.000980121,0.000970717,-0.00047936,-0.001667006,-9.81832,0,0,28.94165,1,1,1000,1000
5641,25:16.6,IMU,67765383,1,0.000966145,0.001103474,0.000716618,-0.000407482,-0.001629484,-9.818054,0,0,28.9416,1,1,760,800
5695,25:16.6,IMU,67805367,0,0.000957515,0.000982849,0.000960056,-0.000623868,-0.001355318,-9.817069,0,0,28.94379,1,1,1000,1000
5696,25:16.6,IMU,67805367,1,0.00125793,0.000968623,0.000880651,-0.002968615,-0.000199331,-9.816305,0,0,28.94374,1,1,760,800
5789,25:16.7,IMU,67845351,0,0.001051162,0.000907873,0.000924051,-0.000943042,-0.000704094,-9.818467,0,0,28.94593,1,1,1000,1000
5790,25:16.7,IMU,67845351,1,0.001219905,0.001000311,0.001021353,0.000667024,-0.002491286,-9.815836,0,0,28.94588,1,1,760,800
5842,25:16.7,IMU,67885335,0,0.00086767,0.000985901,0.000952646,-0.001802995,-0.002730226,-9.81766,0,0,28.94807,1,1,1000,1000
5843,25:16.7,IMU,67885335,1,0.001054451,0.00104106,0.001097177,-0.001700056,-0.001838118,-9.816242,0,0,28.94802,1,1,760,800
5895,25:16.7,IMU,67925319,0,0.000995729,0.000959184,0.001013839,-0.000544086,-0.000785247,-9.817001,0,0,28.95021,1,1,1000,1000
5896,25:16.7,IMU,67925319,1,0.001144762,0.00087486,0.000992753,-0.002588369,-0.002202666,-9.816072,0,0,28.95016,1,1,760,800
5989,25:16.8,IMU,67965303,0,0.000890836,0.000970093,0.00092301,-0.000419596,-0.000910974,-9.818528,0,0,28.95235,1,1,1000,1000
5990,25:16.8,IMU,67965303,1,0.000922141,0.000805386,0.000828603,0.000460078,-0.001351567,-9.819802,0,0,28.9523,1,1,760,800
6045,25:16.8,IMU,68005287,0,0.000946679,0.000985441,0.000968527,-0.002045364,-0.001041088,-9.817471,0,0,28.95449,1,1,1000,1000
6046,25:16.8,IMU,68005287,1,0.000852822,0.0010348,0.000992299,-0.000678769,-0.000288993,-9.81887,0,0,28.95444,1,1,760,800
6141,25:16.9,IMU,68045271,0,0.000965039,0.00094224,0.000900574,-0.001800347,0.000458558,-9.818615,0,0,28.95663,1,1,1000,1000
6142,25:16.9,IMU,68045271,1,0.000856992,0.000819594,0.000804642,-0.001275444,0.001224733,-9.81731,0,0,28.95658,1,1,760,800
6193,25:16.9,IMU,68085255,0,0.000930046,0.000884075,0.001099775,-0.001583359,-0.000837114,-9.817118,0,0,28.95877,1,1,1000,1000
6194,25:16.9,IMU,68085255,1,0.001287114,0.00096764,0.0007531,-7.88E-05,0.000409238,-9.816815,0,0,28.95872,1,1,760,800
6247,25:16.9,IMU,68125239,0,0.000973828,0.000961582,0.000977116,-0.001587666,-0.002005884,-9.817122,0,0,28.96091,1,1,1000,1000
6248,25:16.9,IMU,68125239,1,0.000941051,0.000638996,0.001074105,-0.000570734,-0.000515616,-9.817339,0,0,28.96086,1,1,760,800
6341,25:17.0,IMU,68165223,0,0.000996866,0.000993582,0.00098806,-0.001201982,-0.001526538,-9.818034,0,0,28.96299,1,1,1000,1000
6342,25:17.0,IMU,68165223,1,0.001167787,0.000911885,0.001005118,-0.003794995,-0.001632873,-9.816339,0,0,28.96299,1,1,760,800
6396,25:17.0,IMU,68205207,0,0.000913391,0.000886414,0.000947822,-0.00124207,-0.001451365,-9.818192,0,0,28.96513,1,1,1000,1000
6397,25:17.0,IMU,68205207,1,0.000944235,0.001094018,0.000866544,-0.001995833,-0.000988733,-9.818448,0,0,28.96513,1,1,760,800
6490,25:17.1,IMU,68245191,0,0.000943626,0.000989825,0.000944425,-0.002024777,-0.000970252,-9.816414,0,0,28.96727,1,1,1000,1000
6491,25:17.1,IMU,68245191,1,0.001135364,0.000833077,0.000990729,0.000658905,-0.00167173,-9.816201,0,0,28.96727,1,1,760,800
6542,25:17.1,IMU,68285175,0,0.000933826,0.000905648,0.000948272,-0.001066882,-0.001102005,-9.817375,0,0,28.96941,1,1,1000,1000
6543,25:17.1,IMU,68285175,1,0.000950452,0.000824728,0.001141521,-0.00090388,-0.001884711,-9.81768,0,0,28.96941,1,1,760,800
6595,25:17.1,IMU,68325159,0,0.000935264,0.000999603,0.000954604,-0.001495496,9.13453E-05,-9.817055,0,0,28.97154,1,1,1000,1000
6596,25:17.1,IMU,68325159,1,0.00111788,0.000999301,0.000919952,-0.00065194,-0.000916984,-9.82088,0,0,28.97154,1,1,760,800
6691,25:17.2,IMU,68365143,0,0.000961868,0.000973032,0.000933344,-0.001656298,-0.001745376,-9.816757,0,0,28.97368,1,1,1000,1000
6692,25:17.2,IMU,68365143,1,0.001021725,0.000904592,0.000821773,-1.35E-05,-0.000310504,-9.816561,0,0,28.97368,1,1,760,800
6746,25:17.2,IMU,68405127,0,0.000909387,0.000965184,0.000985447,-0.001244687,-0.000260314,-9.819212,0,0,28.97582,1,1,1000,1000
6747,25:17.2,IMU,68405127,1,0.000998082,0.000824936,0.001013849,-0.001624051,-0.001040835,-9.817268,0,0,28.97582,1,1,760,800
6841,25:17.3,IMU,68445111,0,0.00094225,0.000945994,0.000964285,-0.0006008,-0.001030006,-9.817255,0,0,28.97795,1,1,1000,1000
6842,25:17.3,IMU,68445111,1,0.001098388,0.00120268,0.00097416,-0.000807338,-9.03E-05,-9.817709,0,0,28.97795,1,1,760,800
6895,25:17.3,IMU,68485095,0,0.000970113,0.000997596,0.000962158,0.000152136,-0.001202316,-9.817108,0,0,28.98009,1,1,1000,1000
6896,25:17.3,IMU,68485095,1,0.00114728,0.000878355,0.000845808,-0.000648714,-0.003347712,-9.81737,0,0,28.98009,1,1,760,800
6948,25:17.3,IMU,68525079,0,0.000931286,0.000931888,0.001017134,-0.000494106,-0.001023452,-9.817413,0,0,28.98223,1,1,1000,1000
6949,25:17.3,IMU,68525079,1,0.001222712,0.00108585,0.000976343,-0.00082695,-0.000968884,-9.81739,0,0,28.98223,1,1,760,800
7045,25:17.4,IMU,68565063,0,0.000956302,0.000938791,0.000847325,-0.00194479,-0.000716632,-9.817289,0,0,28.98442,1,1,1000,1000
7046,25:17.4,IMU,68565063,1,0.001037385,0.00095306,0.001051667,0.000225065,-0.001644861,-9.821029,0,0,28.98442,1,1,760,800
7102,25:17.4,IMU,68605047,0,0.0008936,0.00102131,0.000921391,-0.001447353,-0.00038953,-9.81738,0,0,28.98655,1,1,1000,1000
7103,25:17.4,IMU,68605047,1,0.001058568,0.00082857,0.000905157,-0.00260298,0.001296742,-9.816888,0,0,28.98655,1,1,760,800
7195,25:17.5,IMU,68645031,0,0.000931189,0.000978315,0.000956455,-0.002405967,-0.001590189,-9.817059,0,0,28.98869,1,1,1000,1000
7196,25:17.5,IMU,68645031,1,0.00095622,0.000933158,0.00094782,6.104748E-05,-0.003062026,-9.819316,0,0,28.98869,1,1,760,800
7247,25:17.5,IMU,68685015,0,0.000891674,0.000911045,0.000985866,-0.001805049,0.000356885,-9.817082,0,0,28.99082,1,1,1000,1000
7248,25:17.5,IMU,68685015,1,0.000798556,0.000981585,0.001003989,0.001836986,-0.001205591,-9.816536,0,0,28.99082,1,1,760,800
7300,25:17.5,IMU,68724999,0,0.000959214,0.00101673,0.000989492,-0.001132426,-0.000251296,-9.81711,0,0,28.9929,1,1,1000,1000
7301,25:17.5,IMU,68724999,1,0.000956527,0.001153352,0.001094074,0.00088452,0.001350494,-9.819389,0,0,28.9929,1,1,760,800
7396,25:17.6,IMU,68764983,0,0.000986714,0.001056548,0.000901749,-0.00046359,-0.000451924,-9.817963,0,0,28.99504,1,1,1000,1000
7397,25:17.6,IMU,68764983,1,0.000939483,0.000766344,0.000851152,0.002829931,-0.002700337,-9.8183,0,0,28.99504,1,1,760,800
7451,25:17.6,IMU,68804967,0,0.000951114,0.000911333,0.001014656,-0.001171615,-0.002086049,-9.817226,0,0,28.99717,1,1,1000,1000
7452,25:17.6,IMU,68804967,1,0.001030752,0.001071242,0.001018257,0.001472393,0.000519928,-9.817773,0,0,28.99717,1,1,760,800
7545,25:17.7,IMU,68844951,0,0.000957586,0.001015413,0.000962207,-0.001925687,-0.000863733,-9.817864,0,0,28.9993,1,1,1000,1000
7546,25:17.7,IMU,68844951,1,0.000865841,0.000779769,0.000884538,0.00137273,-0.001532464,-9.815754,0,0,28.9993,1,1,760,800
7597,25:17.7,IMU,68884935,0,0.0009121,0.000993234,0.00095045,-0.001364607,0.000162219,-9.817079,0,0,29.00144,1,1,1000,1000
7598,25:17.7,IMU,68884935,1,0.001006877,0.000752161,0.000959037,-0.000792489,-0.002786511,-9.815442,0,0,29.00144,1,1,760,800
7650,25:17.7,IMU,68924919,0,0.000883923,0.000920299,0.000957828,-0.000549204,-0.000651195,-9.818068,0,0,29.00357,1,1,1000,1000
7651,25:17.7,IMU,68924919,1,0.000996963,0.000838877,0.001027034,-0.004064289,-0.002022336,-9.817085,0,0,29.00357,1,1,760,800
7745,25:17.8,IMU,68964903,0,0.000947409,0.001016367,0.000974529,-0.001148282,-0.000648736,-9.81718,0,0,29.0057,1,1,1000,1000
7746,25:17.8,IMU,68964903,1,0.000899796,0.00100175,0.000658531,-0.002159294,-0.002562975,-9.817184,0,0,29.0057,1,1,760,800
7800,25:17.8,IMU,69004887,0,0.000942887,0.000941772,0.001010671,-0.001968791,-0.000250438,-9.818312,0,0,29.00784,1,1,1000,1000
7801,25:17.8,IMU,69004887,1,0.000771201,0.000743132,0.001087815,-0.000854462,-0.000712518,-9.81815,0,0,29.00784,1,1,760,800
7896,25:17.9,IMU,69044871,0,0.000891833,0.001057404,0.001011818,-0.001459212,-0.001321636,-9.817832,0,0,29.00997,1,1,1000,1000
7897,25:17.9,IMU,69044871,1,0.001113371,0.001010595,0.00088834,0.001599326,-0.001663845,-9.818269,0,0,29.00997,1,1,760,800
7948,25:17.9,IMU,69084855,0,0.000997837,0.000977585,0.000968074,-0.002225856,-0.001680059,-9.817226,0,0,29.0121,1,1,1000,1000
7949,25:17.9,IMU,69084855,1,0.000860337,0.00102341,0.000877872,-0.001177655,-0.000720329,-9.815767,0,0,29.0121,1,1,760,800
8002,25:17.9,IMU,69124839,0,0.000933177,0.001075126,0.001005844,-0.002030285,-0.000696252,-9.817484,0,0,29.01423,1,1,1000,1000
8003,25:17.9,IMU,69124839,1,0.001018399,0.00106347,0.001025453,0.00023797,-0.000789085,-9.818234,0,0,29.01423,1,1,760,800
8097,25:18.0,IMU,69164823,0,0.000993128,0.000982269,0.001020879,-0.000895548,-0.001320438,-9.817312,0,0,29.01636,1,1,1000,1000
8098,25:18.0,IMU,69164823,1,0.000924665,0.000924519,0.001150163,-0.000107505,2.413101E-05,-9.817178,0,0,29.01636,1,1,760,800
8152,25:18.0,IMU,69204807,0,0.000955104,0.0010055,0.001014023,-0.000454575,-0.000173749,-9.818657,0,0,29.01849,1,1,1000,1000
8153,25:18.0,IMU,69204807,1,0.001073378,0.001051375,0.001264929,-0.002692455,-0.000413661,-9.818464,0,0,29.01849,1,1,760,800
8246,25:18.1,IMU,69244791,0,0.001029837,0.001033722,0.000964443,-0.000538052,-0.000589575,-9.81719,0,0,29.02062,1,1,1000,1000
8247,25:18.1,IMU,69244791,1,0.000987353,0.000944241,0.00089879,-0.001901163,0.000665421,-9.817984,0,0,29.02062,1,1,760,800
8298,25:18.1,IMU,69284775,0,0.000981523,0.000984239,0.000963131,-0.00126163,-0.001472455,-9.817929,0,0,29.02275,1,1,1000,1000
8299,25:18.1,IMU,69284775,1,0.001211777,0.001102359,0.000996917,0.000767957,-0.0019911,-9.817579,0,0,29.02275,1,1,760,800
8351,25:18.1,IMU,69324759,0,0.001005416,0.000957482,0.00101671,-0.001589728,-0.001453956,-9.817915,0,0,29.02489,1,1,1000,1000
8352,25:18.1,IMU,69324759,1,0.001083647,0.000946521,0.000988251,2.126768E-05,-0.001974067,-9.816886,0,0,29.02489,1,1,760,800
8452,25:18.2,IMU,69364743,0,0.000982742,0.000948579,0.000968169,-0.000253237,-0.001121301,-9.817875,0,0,29.02701,1,1,1000,1000
8453,25:18.2,IMU,69364743,1,0.001020169,0.001065895,0.000801917,-0.000788733,-0.000569218,-9.81644,0,0,29.02701,1,1,760,800
8508,25:18.2,IMU,69404727,0,0.00095869,0.000989628,0.000940578,-0.001482198,-0.002362682,-9.817575,0,0,29.02914,1,1,1000,1000
8509,25:18.2,IMU,69404727,1,0.000809941,0.000982752,0.00105205,-0.000601866,-0.001695097,-9.818669,0,0,29.02914,1,1,760,800
8609,25:18.3,IMU,69444711,0,0.000970723,0.000991674,0.000893018,-0.001134984,-0.001378882,-9.817426,0,0,29.03127,1,1,1000,1000
8610,25:18.3,IMU,69444711,1,0.000793736,0.001038113,0.000826797,-0.001570393,0.000261012,-9.816705,0,0,29.03127,1,1,760,800
8663,25:18.3,IMU,69484695,0,0.000951689,0.000935833,0.000950168,-0.000157772,-0.001278271,-9.817129,0,0,29.0334,1,1,1000,1000
8664,25:18.3,IMU,69484695,1,0.001115581,0.000744339,0.000855638,-0.002911764,-0.000432504,-9.818911,0,0,29.0334,1,1,760,800
8716,25:18.3,IMU,69524679,0,0.000974832,0.001062365,0.001017563,-0.001454457,-0.000970181,-9.818083,0,0,29.03553,1,1,1000,1000
8717,25:18.3,IMU,69524679,1,0.000950732,0.000946581,0.001085812,0.000896359,-3.78E-05,-9.81847,0,0,29.03553,1,1,760,800
8818,25:18.4,IMU,69564663,0,0.000855465,0.001014332,0.000973664,-0.000888986,-0.000518194,-9.817541,0,0,29.03766,1,1,1000,1000
8819,25:18.4,IMU,69564663,1,0.001236107,0.001227402,0.000936474,-0.000632619,-0.001413277,-9.819923,0,0,29.03766,1,1,760,800
8874,25:18.4,IMU,69604647,0,0.000934304,0.000996896,0.000955897,-0.000561671,-0.001889138,-9.817495,0,0,29.03979,1,1,1000,1000
8875,25:18.4,IMU,69604647,1,0.001024737,0.001046964,0.000806231,0.000702962,-0.000378004,-9.816842,0,0,29.03979,1,1,760,800
8973,25:18.5,IMU,69644631,0,0.000932871,0.000966133,0.000956965,-0.001591472,-0.00094968,-9.816936,0,0,29.04192,1,1,1000,1000
8974,25:18.5,IMU,69644631,1,0.00097949,0.000887974,0.001038332,0.000408156,0.000482059,-9.814846,0,0,29.04192,1,1,760,800
9025,25:18.5,IMU,69684615,0,0.000974088,0.001053544,0.001001783,-0.001571837,-0.000894716,-9.817598,0,0,29.04404,1,1,1000,1000
9026,25:18.5,IMU,69684615,1,0.000863448,0.000976532,0.000926723,0.000211793,-0.002398805,-9.817563,0,0,29.04404,1,1,760,800
9078,25:18.5,IMU,69724599,0,0.001074346,0.000929932,0.001037543,0.000953622,-0.000916201,-9.81767,0,0,29.04617,1,1,1000,1000
9079,25:18.5,IMU,69724599,1,0.000822574,0.001080144,0.001018266,-0.001253432,-0.000178229,-9.81644,0,0,29.04617,1,1,760,800
9179,25:18.6,IMU,69764583,0,0.001000553,0.001048257,0.000996111,-0.002316739,-0.001145127,-9.81814,0,0,29.0483,1,1,1000,1000
9180,25:18.6,IMU,69764583,1,0.001195081,0.000854499,0.001387712,0.00040745,0.000503938,-9.818489,0,0,29.0483,1,1,760,800
9233,25:18.6,IMU,69805400,0,0.000964118,0.000977898,0.000989759,-0.000604517,-0.000666726,-9.818196,0,0,29.05048,1,1,1000,1000
9234,25:18.6,IMU,69805400,1,0.001050615,0.001085681,0.000854708,-0.002228069,-0.002907457,-9.817921,0,0,29.05042,1,1,760,800
9332,25:18.7,IMU,69845384,0,0.00095889,0.000955215,0.000950246,4.231496E-05,-0.001781789,-9.817113,0,0,29.0526,1,1,1000,1000
9333,25:18.7,IMU,69845384,1,0.000974997,0.000932911,0.001260032,0.000789657,-0.002167537,-9.817389,0,0,29.05255,1,1,760,800
9384,25:18.7,IMU,69885368,0,0.000962514,0.000914004,0.000947963,-0.001688595,-0.00135304,-9.817353,0,0,29.05473,1,1,1000,1000
9385,25:18.7,IMU,69885368,1,0.00097063,0.000845036,0.00076285,7.670626E-05,-0.00017954,-9.817459,0,0,29.05468,1,1,760,800
9438,25:18.7,IMU,69925352,0,0.000964936,0.001014663,0.000986521,-0.001065073,-0.001685247,-9.817932,0,0,29.05685,1,1,1000,1000
9439,25:18.7,IMU,69925352,1,0.001238757,0.001161498,0.001045229,-0.000779426,-0.000453121,-9.816475,0,0,29.0568,1,1,760,800
9538,25:18.8,IMU,69965336,0,0.000995966,0.000998677,0.001012571,-0.001663565,-0.000623213,-9.817562,0,0,29.05898,1,1,1000,1000
9539,25:18.8,IMU,69965336,1,0.001024384,0.000751951,0.000929648,-0.000620466,-0.00014193,-9.817257,0,0,29.05893,1,1,760,800
9593,25:18.8,IMU,70005320,0,0.001061564,0.000948246,0.000954252,-0.001388595,4.460954E-05,-9.816976,0,0,29.06111,1,1,1000,1000
9594,25:18.8,IMU,70005320,1,0.001165708,0.000856101,0.001186889,0.001080051,-0.003956184,-9.819108,0,0,29.06105,1,1,760,800
9694,25:18.9,IMU,70045304,0,0.000922101,0.001034467,0.000956208,-0.001057102,-0.00178435,-9.818815,0,0,29.06323,1,1,1000,1000
9695,25:18.9,IMU,70045304,1,0.001106137,0.001146467,0.001022974,-0.000782236,-0.000709751,-9.818289,0,0,29.06318,1,1,760,800
9746,25:18.9,IMU,70085288,0,0.000995453,0.000989097,0.000972667,-0.000523389,-0.001612081,-9.818458,0,0,29.06536,1,1,1000,1000
9747,25:18.9,IMU,70085288,1,0.000834912,0.000737399,0.000990911,-0.001136426,0.000486782,-9.815769,0,0,29.0653,1,1,760,800
9800,25:18.9,IMU,70125272,0,0.000959006,0.000989408,0.001018577,-0.001929231,-0.00132961,-9.817271,0,0,29.06748,1,1,1000,1000
9801,25:18.9,IMU,70125272,1,0.000853105,0.001034566,0.001070756,-0.003325742,-0.002339996,-9.816516,0,0,29.06743,1,1,760,800
9899,25:19.0,IMU,70165256,0,0.000940315,0.000999842,0.001065195,0.000126032,8.823739E-05,-9.816409,0,0,29.0696,1,1,1000,1000
9900,25:19.0,IMU,70165256,1,0.001047801,0.000973399,0.001011529,-0.000445539,-0.002456153,-9.818449,0,0,29.06955,1,1,760,800
9954,25:19.0,IMU,70205240,0,0.001042835,0.001025906,0.000992435,-0.000819654,-0.000931063,-9.817287,0,0,29.07173,1,1,1000,1000
9955,25:19.0,IMU,70205240,1,0.001090898,0.001024738,0.000693002,-5.04E-05,-0.002120334,-9.818808,0,0,29.07167,1,1,760,800
10053,25:19.1,IMU,70245224,0,0.000923713,0.001018304,0.001038018,-0.001213128,-0.000736129,-9.817307,0,0,29.0738,1,1,1000,1000
10054,25:19.1,IMU,70245224,1,0.000838322,0.001072226,0.001027926,-0.000767172,0.000359393,-9.817165,0,0,29.0738,1,1,760,800
10105,25:19.1,IMU,70285208,0,0.00100324,0.000999056,0.001024991,-0.001542693,-0.001246197,-9.817924,0,0,29.07592,1,1,1000,1000
10106,25:19.1,IMU,70285208,1,0.000941232,0.001172829,0.000961135,-0.003030527,0.00220307,-9.817737,0,0,29.07592,1,1,760,800
10158,25:19.1,IMU,70325192,0,0.001016324,0.000932939,0.000973576,-0.000545905,-0.001732625,-9.816999,0,0,29.07804,1,1,1000,1000
10159,25:19.1,IMU,70325192,1,0.000863595,0.000773378,0.000919991,-0.001886456,0.000953097,-9.815699,0,0,29.07804,1,1,760,800
10258,25:19.2,IMU,70365176,0,0.001080489,0.00093883,0.000996309,0.000429595,-0.001155481,-9.816781,0,0,29.08017,1,1,1000,1000
10259,25:19.2,IMU,70365176,1,0.000958562,0.001130716,0.000847316,-0.001717478,0.000182087,-9.816646,0,0,29.08017,1,1,760,800
10313,25:19.2,IMU,70405160,0,0.000984254,0.001022174,0.001016666,-0.000788722,-0.000655264,-9.81711,0,0,29.08229,1,1,1000,1000
10314,25:19.2,IMU,70405160,1,0.000753061,0.001130096,0.000808222,-0.002714582,-0.001708608,-9.818889,0,0,29.08229,1,1,760,800
10415,25:19.3,IMU,70445144,0,0.000968035,0.000951417,0.000979807,-0.000490045,-0.000636101,-9.817465,0,0,29.08441,1,1,1000,1000
10416,25:19.3,IMU,70445144,1,0.001176249,0.001135601,0.001109479,-0.000229105,-0.001734158,-9.816051,0,0,29.08441,1,1,760,800
10470,25:19.3,IMU,70485128,0,0.000945454,0.000986157,0.001032725,-0.001928091,-0.001205516,-9.817666,0,0,29.08653,1,1,1000,1000
10471,25:19.3,IMU,70485128,1,0.000728111,0.001061017,0.000873221,-0.001095064,-0.001533293,-9.816136,0,0,29.08653,1,1,760,800
10523,25:19.3,IMU,70525112,0,0.001012754,0.000988139,0.001007085,-0.001044994,-0.001749899,-9.817043,0,0,29.08866,1,1,1000,1000
10524,25:19.3,IMU,70525112,1,0.000677955,0.000895338,0.001211785,-0.002286752,-0.000795939,-9.820707,0,0,29.08866,1,1,760,800
10624,25:19.4,IMU,70565096,0,0.000996008,0.000900334,0.000886231,-0.001313987,-0.000821065,-9.817026,0,0,29.09078,1,1,1000,1000
10625,25:19.4,IMU,70565096,1,0.001075935,0.001098982,0.00081173,-0.000840627,0.000932837,-9.816763,0,0,29.09078,1,1,760,800
10679,25:19.4,IMU,70605080,0,0.001016478,0.001042901,0.000957612,-0.000612291,-0.000735477,-9.816699,0,0,29.0929,1,1,1000,1000
10680,25:19.4,IMU,70605080,1,0.001133258,0.000709776,0.001100659,-0.000550772,-0.002212849,-9.815657,0,0,29.0929,1,1,760,800
10780,25:19.5,IMU,70645064,0,0.001001632,0.00097325,0.00101986,-0.000182303,-0.000866908,-9.816705,0,0,29.09507,1,1,1000,1000
10781,25:19.5,IMU,70645064,1,0.001093423,0.001198799,0.001258152,-0.000725038,-0.001175263,-9.81492,0,0,29.09507,1,1,760,800
10832,25:19.5,IMU,70685048,0,0.001048389,0.000985587,0.00100246,-0.000679103,-0.001423819,-9.816919,0,0,29.09719,1,1,1000,1000
10833,25:19.5,IMU,70685048,1,0.001069499,0.00079712,0.000813875,-0.000194671,-0.002021794,-9.818438,0,0,29.09719,1,1,760,800
10885,25:19.5,IMU,70725032,0,0.000929676,0.000952048,0.000953003,-0.000995137,-0.000662599,-9.816982,0,0,29.09931,1,1,1000,1000
10886,25:19.5,IMU,70725032,1,0.001003421,0.001219961,0.001020905,0.001123609,-0.004088354,-9.815496,0,0,29.09931,1,1,760,800
10988,25:19.6,IMU,70765016,0,0.001032035,0.001001807,0.00105069,-0.000653972,-0.000622103,-9.816675,0,0,29.10143,1,1,1000,1000
10989,25:19.6,IMU,70765016,1,0.000975231,0.000740269,0.000920634,-0.000804257,-0.00220549,-9.816694,0,0,29.10143,1,1,760,800
11043,25:19.6,IMU,70805000,0,0.000970538,0.001027659,0.001004442,-0.001008306,-0.000157994,-9.817751,0,0,29.10355,1,1,1000,1000
11044,25:19.6,IMU,70805000,1,0.001076308,0.000941385,0.001000034,-0.00234197,-5.83E-05,-9.819242,0,0,29.10355,1,1,760,800
11141,25:19.7,IMU,70844984,0,0.00093671,0.000986737,0.001008351,-0.000460222,-0.001930656,-9.818484,0,0,29.10562,1,1,1000,1000
11142,25:19.7,IMU,70844984,1,0.000952204,0.001017143,0.000828576,-0.000782293,-0.000272032,-9.816899,0,0,29.10562,1,1,760,800
11193,25:19.7,IMU,70884968,0,0.00100497,0.000997212,0.00103305,-0.00162563,-0.001423091,-9.817518,0,0,29.10774,1,1,1000,1000
11194,25:19.7,IMU,70884968,1,0.001058958,0.001051077,0.001139353,-0.001522878,0.001154625,-9.819725,0,0,29.10774,1,1,760,800
11247,25:19.7,IMU,70924952,0,0.00091102,0.000909449,0.001011642,-0.000837932,-0.001560259,-9.817715,0,0,29.10986,1,1,1000,1000
11248,25:19.7,IMU,70924952,1,0.001033733,0.000945293,0.000728977,-0.000651448,-0.002974956,-9.819017,0,0,29.10986,1,1,760,800
11347,25:19.8,IMU,70964936,0,0.001075917,0.000922066,0.000946029,-0.000764152,0.000308482,-9.818536,0,0,29.11198,1,1,1000,1000
11348,25:19.8,IMU,70964936,1,0.000746015,0.001095759,0.001185691,-0.000184188,-0.000631351,-9.814966,0,0,29.11198,1,1,760,800
11402,25:19.8,IMU,71004920,0,0.000975977,0.000975134,0.001035475,-0.000711659,-0.001174003,-9.818024,0,0,29.11409,1,1,1000,1000
11403,25:19.8,IMU,71004920,1,0.001132629,0.000862632,0.000940028,-0.001795133,-0.001887449,-9.815817,0,0,29.11409,1,1,760,800
11503,25:19.9,IMU,71044904,0,0.001023635,0.000954749,0.000970633,-0.001253902,-0.001667269,-9.817162,0,0,29.11621,1,1,1000,1000
11504,25:19.9,IMU,71044904,1,0.001050975,0.001151183,0.000789159,0.000113293,-0.000926804,-9.816855,0,0,29.11621,1,1,760,800
11554,25:19.9,IMU,71084888,0,0.001003647,0.0009779,0.001031231,0.000609035,-0.001253098,-9.818247,0,0,29.11833,1,1,1000,1000
11555,25:19.9,IMU,71084888,1,0.001153584,0.000975677,0.000828491,-0.000493454,-0.00095009,-9.816713,0,0,29.11833,1,1,760,800
11608,25:19.9,IMU,71124872,0,0.000930502,0.00106127,0.000969132,-0.001713258,-0.001023347,-9.817781,0,0,29.12045,1,1,1000,1000
11609,25:19.9,IMU,71124872,1,0.000767932,0.000825973,0.000966054,0.001467685,-0.001733911,-9.816682,0,0,29.12045,1,1,760,800
11708,25:20.0,IMU,71164856,0,0.00098095,0.001040762,0.000936644,-0.000814116,-0.001663598,-9.816539,0,0,29.12256,1,1,1000,1000
11709,25:20.0,IMU,71164856,1,0.001148059,0.001007503,0.000994494,-0.001489385,-0.001272538,-9.815472,0,0,29.12256,1,1,760,800
11763,25:20.0,IMU,71204840,0,0.000990916,0.001006566,0.001005083,-0.000492524,-0.001487033,-9.817696,0,0,29.12468,1,1,1000,1000
11764,25:20.0,IMU,71204840,1,0.000824884,0.000688908,0.000938672,0.000104527,-0.001889631,-9.819297,0,0,29.12468,1,1,760,800
11864,25:20.1,IMU,71244824,0,0.001006438,0.001009325,0.000959786,-0.000868373,-0.001153315,-9.81862,0,0,29.1268,1,1,1000,1000
11865,25:20.1,IMU,71244824,1,0.00102804,0.001261647,0.00118564,-0.001501046,-0.000679817,-9.816727,0,0,29.1268,1,1,760,800
11916,25:20.1,IMU,71284808,0,0.000935503,0.001041097,0.000960962,-0.001446667,-0.000262097,-9.816162,0,0,29.12891,1,1,1000,1000
11917,25:20.1,IMU,71284808,1,0.001003502,0.000889578,0.000942958,0.000154525,-0.001856018,-9.817997,0,0,29.12891,1,1,760,800
11968,25:20.1,IMU,71324792,0,0.00098421,0.000996921,0.001049798,-0.00141241,-0.002319508,-9.817782,0,0,29.13103,1,1,1000,1000
11969,25:20.1,IMU,71324792,1,0.000765137,0.000925839,0.000752389,-0.002717524,0.000220905,-9.81891,0,0,29.13103,1,1,760,800
12068,25:20.2,IMU,71364776,0,0.000967317,0.001005586,0.001018487,-0.001406876,-0.001182575,-9.818125,0,0,29.13315,1,1,1000,1000
12069,25:20.2,IMU,71364776,1,0.001145706,0.000588517,0.000873741,-0.001833278,-0.000301245,-9.815372,0,0,29.13315,1,1,760,800
12123,25:20.2,IMU,71404760,0,0.001023676,0.001026209,0.001008609,-0.001088007,-0.000126169,-9.817649,0,0,29.13526,1,1,1000,1000
12124,25:20.2,IMU,71404760,1,0.001047226,0.001251297,0.000855183,-0.000693964,-0.001798898,-9.818787,0,0,29.13526,1,1,760,800
12225,25:20.3,IMU,71444744,0,0.001041226,0.001065843,0.001056539,-0.000898972,-0.001341418,-9.816954,0,0,29.13738,1,1,1000,1000
12226,25:20.3,IMU,71444744,1,0.001119879,0.001022001,0.001106465,-0.001781712,-0.001359913,-9.81668,0,0,29.13738,1,1,760,800
12279,25:20.3,IMU,71484728,0,0.001003327,0.000984251,0.001023789,-0.000685856,-0.00114339,-9.818384,0,0,29.13949,1,1,1000,1000
12280,25:20.3,IMU,71484728,1,0.001088764,0.001027241,0.001057796,-0.001907436,0.000434354,-9.817612,0,0,29.13949,1,1,760,800
12333,25:20.3,IMU,71524712,0,0.001008704,0.001046168,0.001040532,-0.001514249,-0.000849099,-9.817447,0,0,29.14161,1,1,1000,1000
12334,25:20.3,IMU,71524712,1,0.000846198,0.000891756,0.000896844,-0.002962064,-0.003113395,-9.819196,0,0,29.14161,1,1,760,800
12435,25:20.4,IMU,71564696,0,0.001068642,0.000992575,0.001008556,-0.001281043,-0.001712495,-9.816056,0,0,29.14372,1,1,1000,1000
12436,25:20.4,IMU,71564696,1,0.00113837,0.000904935,0.001010277,0.000372382,-0.001021932,-9.815823,0,0,29.14372,1,1,760,800
12490,25:20.4,IMU,71604680,0,0.000945942,0.001046025,0.001059913,-0.000515856,-0.001554914,-9.817363,0,0,29.14583,1,1,1000,1000
12491,25:20.4,IMU,71604680,1,0.001174914,0.00084075,0.001272851,-0.001501312,-0.000471818,-9.81693,0,0,29.14583,1,1,760,800
12590,25:20.5,IMU,71644664,0,0.00093439,0.001052031,0.000941297,-0.001846964,-0.000568932,-9.818808,0,0,29.14795,1,1,1000,1000
12591,25:20.5,IMU,71644664,1,0.000968155,0.000909317,0.000982622,0.000177631,-0.001955447,-9.819199,0,0,29.14795,1,1,760,800
12642,25:20.5,IMU,71684648,0,0.000986811,0.000962576,0.000990858,0.000770789,-0.001258152,-9.817484,0,0,29.15006,1,1,1000,1000
12643,25:20.5,IMU,71684648,1,0.001105742,0.000796112,0.000788031,0.003400679,-0.001432175,-9.817225,0,0,29.15006,1,1,760,800
12695,25:20.5,IMU,71724632,0,0.000916573,0.001029584,0.001011516,-9.52E-05,-0.001957454,-9.817754,0,0,29.15218,1,1,1000,1000
12696,25:20.5,IMU,71724632,1,0.000777201,0.001009422,0.001413517,0.000299606,-0.002000508,-9.818101,0,0,29.15218,1,1,760,800
12796,25:20.6,IMU,71764616,0,0.000972314,0.001027074,0.001021679,-0.001151543,-0.001854622,-9.817934,0,0,29.15429,1,1,1000,1000
12797,25:20.6,IMU,71764616,1,0.000764029,0.000997345,0.001072999,-0.001557419,0.000135535,-9.816313,0,0,29.15429,1,1,760,800
12851,25:20.6,IMU,71804600,0,0.001025039,0.000920586,0.001033644,-0.000787374,-0.000467562,-9.816795,0,0,29.1564,1,1,1000,1000
12852,25:20.6,IMU,71804600,1,0.001005674,0.000949809,0.001094034,-0.000662819,0.000146588,-9.817433,0,0,29.1564,1,1,760,800
12950,25:20.7,IMU,71844584,0,0.001017882,0.000953666,0.001017006,-0.001650125,-0.00030897,-9.816917,0,0,29.15851,1,1,1000,1000
12951,25:20.7,IMU,71844584,1,0.00131337,0.000809618,0.001085829,0.000672943,-0.001856685,-9.817446,0,0,29.15851,1,1,760,800
13002,25:20.7,IMU,71885401,0,0.001009407,0.000984768,0.001025997,-0.000530941,-0.00234182,-9.817303,0,0,29.16068,1,1,1000,1000
13003,25:20.7,IMU,71885401,1,0.000945521,0.000724878,0.000966849,-0.002145488,-0.000617729,-9.817966,0,0,29.16063,1,1,760,800
13055,25:20.7,IMU,71925385,0,0.001058025,0.00106318,0.00102294,-0.000663167,0.000650594,-9.8169,0,0,29.16279,1,1,1000,1000
13056,25:20.7,IMU,71925385,1,0.001051818,0.000559955,0.000805686,-0.000435042,-0.001030157,-9.815992,0,0,29.16274,1,1,760,800
13156,25:20.8,IMU,71965369,0,0.000964436,0.000972176,0.00100431,-0.000495067,-0.000923421,-9.816919,0,0,29.1649,1,1,1000,1000
13157,25:20.8,IMU,71965369,1,0.001008933,0.000977109,0.001093397,-0.00125387,0.001766607,-9.815403,0,0,29.16485,1,1,760,800
13211,25:20.8,IMU,72005353,0,0.00101695,0.000952297,0.001056604,-0.000743693,-0.000579382,-9.817694,0,0,29.16701,1,1,1000,1000
13212,25:20.8,IMU,72005353,1,0.001224576,0.001080231,0.001094613,-0.000341985,-0.001184286,-9.815414,0,0,29.16696,1,1,760,800
13311,25:20.9,IMU,72045337,0,0.001031408,0.001031988,0.001039329,0.000219929,-0.001176341,-9.817833,0,0,29.16912,1,1,1000,1000
13312,25:20.9,IMU,72045337,1,0.001162529,0.001078154,0.00107399,0.000378983,-0.000449277,-9.816849,0,0,29.16907,1,1,760,800
13363,25:20.9,IMU,72085321,0,0.000960223,0.001077591,0.00104633,-0.000854315,-0.000949666,-9.817953,0,0,29.17123,1,1,1000,1000
13364,25:20.9,IMU,72085321,1,0.001009171,0.000906135,0.001214513,0.000357345,-0.00057185,-9.818512,0,0,29.17118,1,1,760,800
13416,25:20.9,IMU,72125305,0,0.001014018,0.001003173,0.001024574,-0.0008493,-0.001327881,-9.817242,0,0,29.17334,1,1,1000,1000
13417,25:20.9,IMU,72125305,1,0.001052887,0.001017498,0.001036726,-0.002815733,-0.002642189,-9.817953,0,0,29.17329,1,1,760,800
13517,25:21.0,IMU,72165289,0,0.000935069,0.000959368,0.000946856,-0.000509785,-0.002166474,-9.817888,0,0,29.17545,1,1,1000,1000
13518,25:21.0,IMU,72165289,1,0.000940779,0.000764746,0.000822281,-0.002146512,-0.002127148,-9.816185,0,0,29.1754,1,1,760,800
13572,25:21.0,IMU,72205273,0,0.000971778,0.00095835,0.001065574,-0.000406038,-0.000444035,-9.817592,0,0,29.17756,1,1,1000,1000
13573,25:21.0,IMU,72205273,1,0.000860354,0.000986593,0.001001883,1.196058E-05,-0.000826225,-9.817411,0,0,29.17751,1,1,760,800
13671,25:21.1,IMU,72245257,0,0.000986756,0.001016376,0.000970394,-0.000430623,-0.001786992,-9.81653,0,0,29.17967,1,1,1000,1000
13672,25:21.1,IMU,72245257,1,0.001171107,0.000826138,0.000905621,0.000497579,-9.98E-05,-9.817947,0,0,29.17962,1,1,760,800
13723,25:21.1,IMU,72285241,0,0.001052936,0.000995545,0.001041266,-0.001297516,-0.001349727,-9.817732,0,0,29.18178,1,1,1000,1000
13724,25:21.1,IMU,72285241,1,0.001290011,0.000935254,0.001021853,-0.000548514,-0.000536741,-9.818983,0,0,29.18173,1,1,760,800
13775,25:21.1,IMU,72325225,0,0.001003622,0.001090622,0.001068999,-0.001830514,-0.001894457,-9.817573,0,0,29.18384,1,1,1000,1000
13776,25:21.1,IMU,72325225,1,0.001053771,0.000870328,0.001075632,0.000739173,0.001689572,-9.816722,0,0,29.18384,1,1,760,800
13875,25:21.2,IMU,72365209,0,0.001019092,0.000952295,0.001081981,-0.000629854,-0.001821569,-9.818626,0,0,29.18595,1,1,1000,1000
13876,25:21.2,IMU,72365209,1,0.001123867,0.000818968,0.000995807,-0.001386337,-0.002647656,-9.818334,0,0,29.18595,1,1,760,800
13930,25:21.2,IMU,72405193,0,0.000983429,0.001014129,0.000970717,-0.001659311,-0.001544305,-9.817802,0,0,29.18806,1,1,1000,1000
13931,25:21.2,IMU,72405193,1,0.000987021,0.001149265,0.001284409,-0.000629666,0.00111353,-9.818415,0,0,29.18806,1,1,760,800
14031,25:21.3,IMU,72445177,0,0.001023711,0.001055693,0.001021263,-0.000368243,-0.001646632,-9.817908,0,0,29.19016,1,1,1000,1000
14032,25:21.3,IMU,72445177,1,0.00079033,0.001245445,0.000953085,0.000870349,0.001293002,-9.817572,0,0,29.19016,1,1,760,800
14087,25:21.3,IMU,72485161,0,0.000998508,0.000971617,0.000989786,-0.001507737,-0.001552729,-9.817957,0,0,29.19227,1,1,1000,1000
14088,25:21.3,IMU,72485161,1,0.000870371,0.001033041,0.000818881,-0.002961949,-0.001523872,-9.81619,0,0,29.19227,1,1,760,800
14140,25:21.3,IMU,72525145,0,0.001041034,0.001036394,0.001016773,-0.000728327,-0.000340905,-9.816719,0,0,29.19438,1,1,1000,1000
14141,25:21.3,IMU,72525145,1,0.000928617,0.000941793,0.001052876,-0.001450863,-0.000576621,-9.818505,0,0,29.19438,1,1,760,800
14241,25:21.4,IMU,72565129,0,0.001018763,0.001010349,0.001023573,-0.000234377,-0.001591363,-9.817465,0,0,29.19649,1,1,1000,1000
14242,25:21.4,IMU,72565129,1,0.000675784,0.000964624,0.000980177,-0.002088413,-0.002324511,-9.819786,0,0,29.19649,1,1,760,800
14296,25:21.4,IMU,72605113,0,0.001004816,0.000953373,0.001014237,-0.000579778,-0.000491574,-9.817278,0,0,29.19859,1,1,1000,1000
14297,25:21.4,IMU,72605113,1,0.001240012,0.000950763,0.000964508,-0.002041097,-0.000154868,-9.815563,0,0,29.19859,1,1,760,800
14396,25:21.5,IMU,72645097,0,0.00105183,0.001071296,0.000988863,-0.000352363,-0.00169572,-9.817787,0,0,29.2007,1,1,1000,1000
14397,25:21.5,IMU,72645097,1,0.001072251,0.00102216,0.001096162,-0.001546348,0.000240744,-9.818638,0,0,29.2007,1,1,760,800
14449,25:21.5,IMU,72685081,0,0.001057063,0.000972555,0.001085929,-0.000335695,-0.002000359,-9.818048,0,0,29.20281,1,1,1000,1000
14450,25:21.5,IMU,72685081,1,0.000970371,0.001115333,0.00096005,0.000955758,-0.001383134,-9.820755,0,0,29.20281,1,1,760,800
14502,25:21.5,IMU,72725065,0,0.001027748,0.000978381,0.000997667,-0.001448042,-0.000305805,-9.817809,0,0,29.20497,1,1,1000,1000
14503,25:21.5,IMU,72725065,1,0.000868917,0.001214023,0.000891578,-0.001300027,-0.001394536,-9.817287,0,0,29.20497,1,1,760,800
14603,25:21.6,IMU,72765049,0,0.001032532,0.001025115,0.001082626,-0.000509348,-0.001985536,-9.817758,0,0,29.20707,1,1,1000,1000
14604,25:21.6,IMU,72765049,1,0.000884711,0.001134173,0.001008628,3.714508E-05,-0.002235953,-9.818844,0,0,29.20707,1,1,760,800
14658,25:21.6,IMU,72805033,0,0.000961766,0.001056761,0.000968726,-0.000726087,-7.19E-05,-9.817019,0,0,29.20918,1,1,1000,1000
14659,25:21.6,IMU,72805033,1,0.001345848,0.001022483,0.000989956,-0.000169938,-0.002201048,-9.819367,0,0,29.20918,1,1,760,800
14757,25:21.7,IMU,72845017,0,0.00107216,0.001049349,0.001032503,-0.001036642,-0.001646829,-9.816879,0,0,29.21128,1,1,1000,1000
14758,25:21.7,IMU,72845017,1,0.001136267,0.000908036,0.001096956,-0.001036103,-0.00075607,-9.816881,0,0,29.21128,1,1,760,800
14809,25:21.7,IMU,72885001,0,0.001059286,0.001033358,0.001014078,-0.002055194,-0.001215984,-9.816868,0,0,29.21339,1,1,1000,1000
14810,25:21.7,IMU,72885001,1,0.001080945,0.000921674,0.000982805,-0.001455398,-0.002568148,-9.816296,0,0,29.21339,1,1,760,800
14862,25:21.7,IMU,72924985,0,0.000992688,0.001030901,0.00101192,-0.001549995,-0.002312504,-9.815443,0,0,29.21544,1,1,1000,1000
14863,25:21.7,IMU,72924985,1,0.001073767,0.001089932,0.001032608,0.001258925,-0.001246381,-9.815811,0,0,29.21544,1,1,760,800
14962,25:21.8,IMU,72964969,0,0.001039171,0.001053678,0.001053982,-0.0008145,-0.000734072,-9.817658,0,0,29.21754,1,1,1000,1000
14963,25:21.8,IMU,72964969,1,0.000960282,0.00079399,0.001195012,-0.003603749,-0.001681137,-9.818172,0,0,29.21754,1,1,760,800
15017,25:21.8,IMU,73004953,0,0.001090964,0.001068706,0.000967501,-0.001058019,-0.001010107,-9.816863,0,0,29.21965,1,1,1000,1000
15018,25:21.8,IMU,73004953,1,0.000923413,0.001001847,0.001005161,-0.001194379,-0.0005973,-9.818134,0,0,29.21965,1,1,760,800
15118,25:21.9,IMU,73044937,0,0.001073417,0.001134254,0.00099413,-0.000863059,-0.001752174,-9.817211,0,0,29.22175,1,1,1000,1000
15119,25:21.9,IMU,73044937,1,0.001038898,0.000958757,0.001183784,-0.001869292,-0.002174267,-9.818609,0,0,29.22175,1,1,760,800
15172,25:21.9,IMU,73084921,0,0.0009857,0.001016014,0.001052308,-0.000548627,-0.000194736,-9.817569,0,0,29.22386,1,1,1000,1000
15173,25:21.9,IMU,73084921,1,0.00102094,0.001050291,0.000866031,-0.000619022,-0.001819614,-9.817698,0,0,29.22386,1,1,760,800
15225,25:21.9,IMU,73124905,0,0.001000076,0.001021845,0.00103009,-0.000574866,-0.001097688,-9.816726,0,0,29.22596,1,1,1000,1000
15226,25:21.9,IMU,73124905,1,0.00115574,0.00099535,0.001053877,-0.001800679,0.000133054,-9.816792,0,0,29.22596,1,1,760,800
15326,25:22.0,IMU,73164889,0,0.001002114,0.001030547,0.001103734,-0.001112408,-0.001052746,-9.817324,0,0,29.22806,1,1,1000,1000
15327,25:22.0,IMU,73164889,1,0.001064319,0.001151766,0.001039721,0.001424203,-0.001004321,-9.817432,0,0,29.22806,1,1,760,800
15381,25:22.0,IMU,73204873,0,0.001047221,0.001011958,0.000998571,-0.000908398,-0.000525529,-9.816986,0,0,29.23017,1,1,1000,1000
15382,25:22.0,IMU,73204873,1,0.001058261,0.001141887,0.001095519,-0.004198373,-0.000239501,-9.817589,0,0,29.23017,1,1,760,800
15479,25:22.1,IMU,73244857,0,0.001007731,0.001024687,0.000996807,-0.000712535,-0.000986692,-9.817484,0,0,29.23227,1,1,1000,1000
15480,25:22.1,IMU,73244857,1,0.001021891,0.000978254,0.000997843,-0.001270541,-0.001734728,-9.815443,0,0,29.23227,1,1,760,800
15531,25:22.1,IMU,73284841,0,0.001021342,0.001018544,0.00106226,0.01439419,-0.000915867,-9.817773,0,0,29.23437,1,1,1000,1000
15532,25:22.1,IMU,73284841,1,0.001007277,0.000888714,0.001059502,0.01856894,-0.00196343,-9.815979,0,0,29.23437,1,1,760,800
15584,25:22.1,IMU,73324825,0,0.001029007,0.001013917,0.001065609,0.01532125,0.000629202,-9.817571,0,0,29.23647,1,1,1000,1000
15585,25:22.1,IMU,73324825,1,0.000918811,0.000911336,0.000980501,0.01392261,0.001877391,-9.817787,0,0,29.23647,1,1,760,800
15684,25:22.2,IMU,73364809,0,0.001032572,0.001001136,0.001018338,0.01144126,0.000793291,-9.818111,0,0,29.23857,1,1,1000,1000
15685,25:22.2,IMU,73364809,1,0.001013148,0.001014084,0.000938786,0.0113865,0.000432989,-9.817787,0,0,29.23857,1,1,760,800
15739,25:22.2,IMU,73404793,0,0.001004159,0.001000889,0.00104163,0.004813846,-0.000388969,-9.815989,0,0,29.24067,1,1,1000,1000
15740,25:22.2,IMU,73404793,1,0.000885229,0.001187843,0.001092716,0.00761678,-0.001233969,-9.817364,0,0,29.24067,1,1,760,800
15840,25:22.3,IMU,73444777,0,0.00102372,0.001076676,0.001048622,0.001026507,-0.000605864,-9.817675,0,0,29.24278,1,1,1000,1000
15841,25:22.3,IMU,73444777,1,0.000914947,0.001056999,0.000895735,0.000218169,-0.002918985,-9.81745,0,0,29.24278,1,1,760,800
15894,25:22.3,IMU,73484761,0,0.001007981,0.001006901,0.001011873,-0.00291808,-3.27E-05,-9.817017,0,0,29.24488,1,1,1000,1000
15895,25:22.3,IMU,73484761,1,0.000979629,0.00114345,0.001011681,-0.002509583,-0.004415372,-9.817149,0,0,29.24488,1,1,760,800
15948,25:22.3,IMU,73524745,0,0.001080345,0.001035131,0.00101949,-0.005384536,-0.001669264,-9.816769,0,0,29.24698,1,1,1000,1000
15949,25:22.3,IMU,73524745,1,0.00105041,0.000875217,0.000981733,-0.004220669,0.002002061,-9.818429,0,0,29.24698,1,1,760,800
16049,25:22.4,IMU,73564729,0,0.00104648,0.001040392,0.001048802,-0.006743682,-0.001790203,-9.81752,0,0,29.24908,1,1,1000,1000
16050,25:22.4,IMU,73564729,1,0.000971434,0.001223724,0.000935706,-0.005902799,-0.001604287,-9.815915,0,0,29.24908,1,1,760,800
16104,25:22.4,IMU,73604713,0,0.001021054,0.001030709,0.001048384,-0.007688707,-0.002048382,-9.817419,0,0,29.25118,1,1,1000,1000
16105,25:22.4,IMU,73604713,1,0.001176328,0.001021056,0.001050381,-0.006392599,-0.004437514,-9.816081,0,0,29.25118,1,1,760,800
16204,25:22.5,IMU,73644697,0,0.001031322,0.001045465,0.001060499,-0.006451621,-0.002003678,-9.816362,0,0,29.25328,1,1,1000,1000
16205,25:22.5,IMU,73644697,1,0.001089845,0.000980008,0.001050442,-0.008732831,-0.002126264,-9.816412,0,0,29.25328,1,1,760,800
16257,25:22.5,IMU,73684681,0,0.000992911,0.000997584,0.00095118,-0.004623446,-0.00097285,-9.816451,0,0,29.25538,1,1,1000,1000
16258,25:22.5,IMU,73684681,1,0.001141213,0.000931562,0.001176028,-0.008087206,0.001092387,-9.817242,0,0,29.25538,1,1,760,800
16310,25:22.5,IMU,73724665,0,0.001028415,0.001088509,0.001073761,-0.00501057,-0.00097151,-9.817849,0,0,29.25748,1,1,1000,1000
16311,25:22.5,IMU,73724665,1,0.001124713,0.001033455,0.00102716,-0.006530043,-0.001517543,-9.817056,0,0,29.25748,1,1,760,800
16411,25:22.6,IMU,73764649,0,0.000980067,0.001037987,0.000993129,-0.003532159,-0.001198647,-9.81749,0,0,29.25957,1,1,1000,1000
16412,25:22.6,IMU,73764649,1,0.001058411,0.000888146,0.001070269,-0.004446322,3.177985E-06,-9.818241,0,0,29.25957,1,1,760,800
16466,25:22.6,IMU,73804633,0,0.001018946,0.001083806,0.001016408,-0.004153247,-0.000960869,-9.817266,0,0,29.26167,1,1,1000,1000
16467,25:22.6,IMU,73804633,1,0.0010523,0.001081745,0.001065124,-0.00085168,-0.002123882,-9.818477,0,0,29.26167,1,1,760,800
16565,25:22.7,IMU,73844617,0,0.0010317,0.00108428,0.001070627,-0.000884322,-0.000596882,-9.81776,0,0,29.26377,1,1,1000,1000
16566,25:22.7,IMU,73844617,1,0.001080601,0.001088694,0.001137997,-0.004840259,0.00140213,-9.815883,0,0,29.26377,1,1,760,800
16617,25:22.7,IMU,73884601,0,0.001008271,0.000993999,0.001069585,-0.000586245,-0.000928735,-9.818736,0,0,29.26587,1,1,1000,1000
16618,25:22.7,IMU,73884601,1,0.001127443,0.000995048,0.001035474,-0.001271629,-0.002079738,-9.815426,0,0,29.26587,1,1,760,800
16670,25:22.7,IMU,73924585,0,0.001074907,0.001047779,0.001051894,0.000320728,-0.000728945,-9.816572,0,0,29.26797,1,1,1000,1000
16671,25:22.7,IMU,73924585,1,0.00106488,0.00102635,0.001087116,-0.003001025,0.002335503,-9.819109,0,0,29.26797,1,1,760,800
16770,25:22.8,IMU,73965402,0,0.001048754,0.001065944,0.001059684,-0.001519182,-0.002666998,-9.820637,0,0,29.27012,1,1,1000,1000
16771,25:22.8,IMU,73965402,1,0.000975065,0.001024273,0.001131628,0.002015137,0.000840714,-9.821835,0,0,29.27007,1,1,760,800
16826,25:22.8,IMU,74005386,0,0.001031192,0.001031612,0.001040031,0.001150515,-0.000510756,-10.28249,0,0,29.27221,1,1,1000,1000
16827,25:22.8,IMU,74005386,1,0.001131271,0.001112026,0.001062319,0.001178995,-0.001167404,-10.27856,0,0,29.27216,1,1,760,800
16932,25:22.9,IMU,74045370,0,0.000978588,0.001044399,0.001063119,-0.000509135,-0.000438659,-10.48103,0,0,29.27431,1,1,1000,1000
16933,25:22.9,IMU,74045370,1,0.001059776,0.001018414,0.001085719,0.000596151,0.000591633,-10.48577,0,0,29.27426,1,1,760,800
16983,25:22.9,IMU,74085354,0,0.001069592,0.001064944,0.001024009,-0.003723301,-0.001129792,-10.36453,0,0,29.27641,1,1,1000,1000
16984,25:22.9,IMU,74085354,1,0.001158965,0.000913673,0.001088373,-0.003527889,0.001620265,-10.36678,0,0,29.27636,1,1,760,800
17036,25:22.9,IMU,74125338,0,0.001010817,0.001045418,0.001044156,-0.003622962,-0.000967273,-10.38453,0,0,29.27851,1,1,1000,1000
17037,25:22.9,IMU,74125338,1,0.001016677,0.001031332,0.001009723,-0.004667641,-0.001865766,-10.38505,0,0,29.27845,1,1,760,800
17137,25:23.0,IMU,74165322,0,0.001028686,0.001049816,0.001043201,-0.003566619,-0.001635115,-10.40146,0,0,29.2806,1,1,1000,1000
17138,25:23.0,IMU,74165322,1,0.001215429,0.000932925,0.00100417,-0.002992597,-0.000616784,-10.4042,0,0,29.28055,1,1,760,800
17192,25:23.0,IMU,74205306,0,0.001070638,0.001112115,0.000994864,-0.001769657,-0.000707237,-10.37692,0,0,29.2827,1,1,1000,1000
17193,25:23.0,IMU,74205306,1,0.000945713,0.001010206,0.00087252,-0.003764424,0.001629289,-10.37985,0,0,29.28264,1,1,760,800
17290,25:23.1,IMU,74245290,0,0.00100963,0.001042616,0.001070565,-0.002550514,-0.002128394,-10.35309,0,0,29.28479,1,1,1000,1000
17291,25:23.1,IMU,74245290,1,0.001078882,0.001062256,0.000978453,-0.000922761,-0.000641134,-10.35647,0,0,29.28474,1,1,760,800
17342,25:23.1,IMU,74285274,0,0.001032542,0.001049744,0.001059245,-0.001430796,-0.001956007,-10.34369,0,0,29.28689,1,1,1000,1000
17343,25:23.1,IMU,74285274,1,0.001171486,0.001087755,0.001082796,0.000628994,-0.002179676,-10.34601,0,0,29.28683,1,1,760,800
17395,25:23.1,IMU,74325258,0,0.000993521,0.001024771,0.001070092,-0.000107448,-0.001147666,-10.34133,0,0,29.28898,1,1,1000,1000
17396,25:23.1,IMU,74325258,1,0.001055655,0.000946654,0.001224055,-0.000197329,-0.001733287,-10.34605,0,0,29.28893,1,1,760,800
17495,25:23.2,IMU,74365242,0,0.001005345,0.001050199,0.001075704,0.000418616,-0.001270812,-10.34873,0,0,29.29108,1,1,1000,1000
17496,25:23.2,IMU,74365242,1,0.000951126,0.001140705,0.00100022,0.000434451,-0.00232874,-10.35317,0,0,29.29102,1,1,760,800
17550,25:23.2,IMU,74405226,0,0.001047414,0.001046974,0.001035073,0.00115704,-0.00101442,-10.36413,0,0,29.29312,1,1,1000,1000
17551,25:23.2,IMU,74405226,1,0.001046386,0.001203424,0.001107618,0.00025462,-0.000995727,-10.36682,0,0,29.29312,1,1,760,800
17650,25:23.3,IMU,74445210,0,0.001034596,0.001041182,0.001075878,0.000185493,-0.00049836,-10.37972,0,0,29.29521,1,1,1000,1000
17651,25:23.3,IMU,74445210,1,0.000954004,0.000830925,0.000876225,0.000792274,-0.002322729,-10.38043,0,0,29.29521,1,1,760,800
17704,25:23.3,IMU,74485194,0,0.001041189,0.001083626,0.001072185,0.00137442,-0.000474863,-10.39478,0,0,29.29731,1,1,1000,1000
17705,25:23.3,IMU,74485194,1,0.00120872,0.001041829,0.001050099,0.001357149,-0.001051999,-10.39797,0,0,29.29731,1,1,760,800
17758,25:23.3,IMU,74525178,0,0.001034126,0.001087226,0.001025491,0.000486571,-7.22E-05,-10.41116,0,0,29.2994,1,1,1000,1000
17759,25:23.3,IMU,74525178,1,0.001102361,0.001011448,0.000939536,0.002850642,-0.000649141,-10.41271,0,0,29.2994,1,1,760,800
17860,25:23.4,IMU,74565162,0,0.001046206,0.001003418,0.001096028,0.001149251,0.000152575,-10.42337,0,0,29.30149,1,1,1000,1000
17861,25:23.4,IMU,74565162,1,0.000972853,0.001031928,0.000836355,0.001270567,-0.00187698,-10.42475,0,0,29.30149,1,1,760,800
17915,25:23.4,IMU,74605146,0,0.00106729,0.00105531,0.000973781,0.000794507,-0.001661684,-10.44135,0,0,29.30359,1,1,1000,1000
17916,25:23.4,IMU,74605146,1,0.001283258,0.001102645,0.001092005,0.002896137,-0.000734332,-10.44542,0,0,29.30359,1,1,760,800
18014,25:23.5,IMU,74645130,0,-0.02131866,-0.01915207,0.001120087,0.01715839,0.000789621,-11.82154,0,0,29.30568,1,1,1000,1000
18015,25:23.5,IMU,74645130,1,-0.02139745,-0.01927683,0.001126496,0.01651483,0.00153438,-11.80818,0,0,29.30568,1,1,760,800
18069,25:23.5,IMU,74685114,0,-0.03078703,-0.0266294,0.001342518,0.06579611,0.00889316,-14.86631,0,0,29.30777,1,1,1000,1000
18070,25:23.5,IMU,74685114,1,-0.03094212,-0.02681901,0.001281823,0.06491455,0.01136412,-14.85354,0,0,29.30777,1,1,760,800
18121,25:23.5,IMU,74725098,0,-0.03423738,-0.02412069,0.001599359,0.09409179,0.02131018,-14.99086,0,0,29.30986,1,1,1000,1000
18122,25:23.5,IMU,74725098,1,-0.03421849,-0.02402942,0.001715459,0.09428583,0.02016795,-14.97821,0,0,29.30986,1,1,760,800
18222,25:23.6,IMU,74765082,0,-0.03239724,-0.01379238,0.00178507,0.1150275,0.03236982,-14.06022,0,0,29.31196,1,1,1000,1000
18223,25:23.6,IMU,74765082,1,-0.03225241,-0.01404891,0.001711427,0.1133614,0.03254098,-14.0542,0,0,29.31196,1,1,760,800
18280,25:23.6,IMU,74805066,0,-0.02822565,-0.002431888,0.001951259,0.1315179,0.04282378,-12.86259,0,0,29.3141,1,1,1000,1000
18281,25:23.6,IMU,74805066,1,-0.02810382,-0.002146048,0.002164386,0.132284,0.04094963,-12.86003,0,0,29.3141,1,1,760,800
18379,25:23.7,IMU,74845050,0,-0.02053295,0.01058381,0.002039455,0.1463095,0.04407649,-11.66395,0,0,29.31619,1,1,1000,1000
18380,25:23.7,IMU,74845050,1,-0.02041278,0.01059766,0.002210612,0.1466357,0.04429643,-11.66377,0,0,29.31619,1,1,760,800
18431,25:23.7,IMU,74885034,0,-0.01395394,0.0222191,0.002153657,0.1578397,0.03953286,-10.64746,0,0,29.31828,1,1,1000,1000
18432,25:23.7,IMU,74885034,1,-0.01384722,0.0222633,0.002386471,0.1565849,0.04015862,-10.64526,0,0,29.31828,1,1,760,800
18484,25:23.7,IMU,74925018,0,-0.008386547,0.03126147,0.002255797,0.1661586,0.03534617,-9.887739,0,0,29.32037,1,1,1000,1000
18485,25:23.7,IMU,74925018,1,-0.008259287,0.03111683,0.002270323,0.1658754,0.03541815,-9.883689,0,0,29.32037,1,1,760,800
18584,25:23.8,IMU,74965002,0,-0.003533212,0.03590904,0.00224058,0.1710563,0.02919419,-9.41502,0,0,29.32246,1,1,1000,1000
18585,25:23.8,IMU,74965002,1,-0.003433042,0.03580844,0.002325499,0.1717989,0.02489678,-9.415598,0,0,29.32246,1,1,760,800
18638,25:23.8,IMU,75004986,0,0.000594144,0.04094803,0.00221251,0.1719367,0.02387839,-9.201349,0,0,29.3245,1,1,1000,1000
18639,25:23.8,IMU,75004986,1,0.000636263,0.04091714,0.002197432,0.1701936,0.02160933,-9.198747,0,0,29.3245,1,1,760,800
18741,25:23.9,IMU,75044970,0,0.004401001,0.04269301,0.002170913,0.1718748,0.02042146,-9.201242,0,0,29.32659,1,1,1000,1000
18742,25:23.9,IMU,75044970,1,0.004520583,0.04264717,0.002343476,0.1729155,0.02015407,-9.20254,0,0,29.32659,1,1,760,800
18793,25:23.9,IMU,75084954,0,0.008548459,0.04512553,0.002107779,0.17134,0.01909746,-9.349462,0,0,29.32868,1,1,1000,1000
18794,25:23.9,IMU,75084954,1,0.008325223,0.04492243,0.002207772,0.1703705,0.01909851,-9.350185,0,0,29.32868,1,1,760,800
18846,25:23.9,IMU,75124938,0,0.01085784,0.04622248,0.002091155,0.1687302,0.01786949,-9.589269,0,0,29.33077,1,1,1000,1000
18847,25:23.9,IMU,75124938,1,0.010999,0.04624413,0.002219207,0.1685096,0.01996237,-9.590096,0,0,29.33077,1,1,760,800
18947,25:24.0,IMU,75164922,0,0.01340356,0.04489297,0.002114749,0.1688171,0.0193429,-9.862723,0,0,29.33286,1,1,1000,1000
18948,25:24.0,IMU,75164922,1,0.0134517,0.04480667,0.002312234,0.170125,0.02180697,-9.863077,0,0,29.33286,1,1,760,800
19002,25:24.0,IMU,75204906,0,0.01330149,0.04250411,0.002055464,0.1737138,0.02164756,-10.12589,0,0,29.33495,1,1,1000,1000
